~VERSION INFORMATION
VERS.           2.0  :CWLS Log ASCII Standard - VERSION 2.0
WRAP.           NO   :One Line per depth step
CREA. 20000721 15.47 :LAS Creation date <yyyymmdd hh.mm>
#--------------------------------------------------
~WELL INFORMATION
#MNEM.UNIT      DATA             DESCRIPTION
#---- ------ --------------   -----------------------------
STRT .M      4775.7588      :START DEPTH
STOP .M      3909.0600      :STOP DEPTH
STEP .M        -0.1524      :STEP
NULL .          -999.25     :NULL VALUE
COMP .        INPEX BROWSE, LTD.                       :COMPANY
WELL .        GORGONICHTHYS-1                          :WELL
FLD  .        EXPLORATION                              :FIELD
LOC  .        Permit WA-285-P                          :LOCATION
CNTY .        SEDCO-703                                :COUNTY
STAT .        WA                                       :STATE
CTRY .        AUSTRALIA                                :COUNTRY
SRVC .        Schlumberger                             :SERVICE COMPANY
API  .                                                 :API NUMBER
DATE .        12:43:45  Friday, July 21, 2000          :LOG DATE
UWI  .                                                 :UNIQUE WELL ID
#--------------------------------------------------
~PARAMETER INFORMATION
#MNEM.UNIT    VALUE                      DESCRIPTION
#---- -----   --------------------       ------------------------
PDAT .        L.A.T.                     :Permanent Datum
EPD  .M           0.000000               :Elevation of Permanent Datum above Mean Sea Level
LMF  .          Drill Floor              :Logging Measured From (Name of Logging Elevation Reference)
APD  .M          26.400000               :Elevation of Depth Reference (LMF) above Permanent Datum
#--------------------------------------------------
~CURVE INFORMATION
#MNEM.UNIT   API CODE DESCRIPTION
#---- -----  -------- -----------------------
DEPTH.M               :DEPTH (BOREHOLE)
AT10 .OHMM            :Array Induction Two Foot Resistivity A10
AT20 .OHMM            :Array Induction Two Foot Resistivity A20
AT30 .OHMM            :Array Induction Two Foot Resistivity A30
AT60 .OHMM            :Array Induction Two Foot Resistivity A60
AT90 .OHMM            :Array Induction Two Foot Resistivity A90
CALI .IN              :Caliper
DRHO .G/C3            :Bulk Density Correction
DT2  .US/F            :Delta-T Shear - Upper Dipole
DTCO .US/F            :Delta-T Compressional
DTSM .US/F            :Delta-T Shear
GR   .GAPI            :Gamma Ray
PEF  .                :Photoelectric Factor
PR   .                :Poisson Shear/Compressional Ratio
RHOB .G/C3            :Bulk Density
RT   .OHMM            :True Resistivity
SPHI .V/V             :Sonic Porosity
TNPH .V/V             :Thermal Neutron Porosity
VPVS .                :Compressional to Shear Velosity Ratio
#--------------------------------------------------
# 
#    DEPTH       AT10        AT20        AT30        AT60        AT90        CALI        DRHO         DT2        DTCO        DTSM         GR          PEF         PR         RHOB         RT         SPHI        TNPH        VPVS     
#                                                                                                                                                                                                                                     
~A  
# ...
 4660.5444      11.788      14.794      16.286      20.370      21.356       8.508       0.081     102.164      69.594     102.164      99.963       4.911       0.067       2.551      19.565       0.122       0.139       1.468
 4660.3920      11.595      14.664      15.527      18.694      19.598       8.910       0.048     110.072      69.728     110.072      98.613       6.954       0.165       2.352      19.506       0.123       0.143       1.579
 4660.2396      10.744      13.328      14.546      17.875      18.602       8.940       0.042     121.872      69.409     121.872     100.873       7.445       0.260       2.315      19.413       0.121       0.128       1.756
 4660.0872      10.380      12.495      13.515      16.561      17.160       8.458       0.045     118.896      68.230     118.896     113.640       6.805       0.254       2.381      19.278       0.112       0.124       1.743
 4659.9348      10.662      12.492      13.543      16.721      17.266       8.356       0.040     118.884      67.514     118.884     132.269       5.629       0.262       2.580      19.100       0.107       0.135       1.761
 4659.7824      11.070      12.755      13.759      17.088      17.579       8.339       0.011     119.002      64.909     119.002     142.689       4.767       0.288       2.692      18.895       0.086       0.153       1.833
 4659.6300      11.238      12.828      13.865      17.186      17.743       8.332       0.003     119.759      65.238     119.759     140.239       3.587       0.289       2.688      18.688       0.089       0.165       1.836
 4659.4776      11.259      12.780      13.841      17.076      17.608       8.317       0.001     117.837      63.519     117.837     145.172       3.173       0.295       2.690      18.500       0.074       0.171       1.855
 4659.3252      11.237      12.660      13.787      16.846      17.346       8.343       0.001     122.992      61.671     122.992     140.837       3.149       0.332       2.681      18.345       0.057       0.182       1.994
 4659.1728      11.194      12.529      13.707      16.525      17.014       8.335       0.000     125.034      63.008     125.034     140.672       3.398       0.330       2.693      18.229       0.070       0.186       1.984
 4659.0204      11.256      12.623      13.719      16.434      16.797       8.323      -0.003     125.958      72.003     125.958     137.383       3.645       0.257       2.679      18.160       0.139       0.190       1.749
 4658.8680      11.487      12.969      13.772      16.658      16.951       8.336      -0.005     123.994      69.588     123.994     145.342       3.656       0.270       2.675      18.154       0.122       0.187       1.782
 4658.7156      11.812      13.311      13.894      16.920      17.085       8.334       0.001     123.470      71.015     123.470     152.099       3.571       0.253       2.692      18.232       0.132       0.181       1.739
 4658.5632      12.164      13.490      14.034      17.310      17.418       8.332       0.007     123.569      70.716     123.569     148.274       3.885       0.257       2.720      18.417       0.130       0.179       1.747
 4658.4108      12.577      13.694      14.190      18.118      18.127       8.330       0.010     122.585      69.358     122.585     140.787       4.046       0.265       2.724      18.725       0.120       0.172       1.767
 4658.2584      13.177      14.247      14.783      19.098      19.120       8.320       0.049     120.629      66.800     120.629     137.371       3.829       0.279       2.714      19.150       0.101       0.168       1.806
 4658.1060      14.375      15.703      16.481      19.767      19.708       8.323       0.105     117.697      64.171     117.697     136.263       3.685       0.288       2.716      19.668       0.080       0.161       1.834
 4657.9536      16.597      18.530      18.454      21.061      20.986       8.328       0.100     113.857      64.134     113.857     135.578       4.337       0.268       2.593      20.266       0.079       0.150       1.775
 4657.8012      19.209      21.922      20.906      21.063      20.840       8.302       0.085     112.667      63.196     112.667     126.315       5.193       0.270       2.531      20.970       0.071       0.134       1.783
 4657.6488      20.583      23.713      21.741      22.615      22.227       8.286       0.076     111.591      63.202     111.591     122.199       4.538       0.264       2.521      21.807       0.071       0.122       1.766
 4657.4964      20.425      23.305      21.979      23.704      23.266       8.294       0.056     106.910      63.400     106.910     113.974       3.702       0.229       2.611      22.724       0.073       0.116       1.686
 4657.3440      20.087      22.638      22.426      25.240      24.758       8.281       0.072     108.088      65.254     108.088     116.609       3.403       0.213       2.727      23.654       0.089       0.130       1.656
 4657.1916      21.116      23.526      24.297      26.443      25.783       8.292       0.052     109.737      63.465     109.737     110.957       3.472       0.249       2.672      24.633       0.074       0.158       1.729
 4657.0392      24.518      26.550      26.963      27.611      26.687       8.297       0.028     107.099      62.400     107.099     103.141       4.291       0.243       2.550      25.594       0.064       0.137       1.716
 4656.8868      30.317      32.230      30.975      30.469      29.513       8.281       0.028     104.741      61.251     104.741      96.209       4.800       0.240       2.513      26.262       0.054       0.104       1.710
 4656.7344      34.880      38.593      36.849      33.708      32.778       8.283       0.037     103.912      60.013     103.912      93.526       3.817       0.250       2.584      25.978       0.042       0.083       1.731
 4656.5820      32.963      37.712      33.412      32.056      31.290       8.267       0.008     107.313      60.941     107.313     106.313       3.546       0.262       2.629      24.794       0.051       0.089       1.761
 4656.4296      28.187      32.146      29.391      26.955      26.539       8.275      -0.008     106.479      59.527     106.479     115.693       3.175       0.273       2.588      23.752       0.037       0.106       1.789
 4656.2772      24.765      28.151      26.801      24.213      23.843       8.381      -0.029     109.048      59.563     109.048     116.834       4.080       0.287       2.478      23.286       0.037       0.119       1.831
 4656.1248      23.197      25.896      24.775      22.021      21.748       9.098      -0.023     115.083      63.287     115.083     113.277       5.204       0.283       2.420      23.320       0.072       0.133       1.818
 4655.9724      24.020      26.742      27.779      22.845      22.532       9.178      -0.003     124.270      62.159     124.270     107.697       7.365       0.333       2.399      23.456       0.062       0.134       1.999
 4655.8200      27.421      31.628      28.888      24.822      24.376       9.118       0.022     125.504      64.364     125.504     112.798       8.346       0.322       2.368      23.594       0.081       0.117       1.950
 4655.6676      33.441      39.701      32.799      27.527      26.976       8.655       0.083     127.711      63.544     127.711      98.382       8.951       0.335       2.420      23.610       0.074       0.105       2.010
 4655.5152      39.235      44.296      31.902      26.270      25.677       8.917       0.118     124.950      63.558     124.950      87.421       6.847       0.325       2.377      23.356       0.074       0.113       1.966
 4655.3628      34.192      35.309      27.610      23.836      23.226      10.136       0.082     108.496      66.257     108.496      83.626       6.535       0.203       2.292      22.780       0.097       0.115       1.638
 4655.2104      24.897      25.466      22.604      21.262      20.742       8.874       0.050     101.487      65.346     101.487     107.038       6.714       0.146       2.280      22.042       0.089       0.134       1.553
