~VERSION INFORMATION
VERS.           2.0  :CWLS Log ASCII Standard - VERSION 2.0
WRAP.           NO   :One Line per depth step
CREA. 20000721 15.47 :LAS Creation date <yyyymmdd hh.mm>
#--------------------------------------------------
~WELL INFORMATION
#MNEM.UNIT      DATA             DESCRIPTION
#---- ------ --------------   -----------------------------
STRT .M      4775.7588      :START DEPTH
STOP .M      3909.0600      :STOP DEPTH
STEP .M        -0.1524      :STEP
NULL .          -999.25     :NULL VALUE
COMP .        INPEX BROWSE, LTD.                       :COMPANY
WELL .        GORGONICHTHYS-1                          :WELL
FLD  .        EXPLORATION                              :FIELD
LOC  .        Permit WA-285-P                          :LOCATION
CNTY .        SEDCO-703                                :COUNTY
STAT .        WA                                       :STATE
CTRY .        AUSTRALIA                                :COUNTRY
SRVC .        Schlumberger                             :SERVICE COMPANY
API  .                                                 :API NUMBER
DATE .        12:43:45  Friday, July 21, 2000          :LOG DATE
UWI  .                                                 :UNIQUE WELL ID
#--------------------------------------------------
~PARAMETER INFORMATION
#MNEM.UNIT    VALUE                      DESCRIPTION
#---- -----   --------------------       ------------------------
PDAT .        L.A.T.                     :Permanent Datum
EPD  .M           0.000000               :Elevation of Permanent Datum above Mean Sea Level
LMF  .          Drill Floor              :Logging Measured From (Name of Logging Elevation Reference)
APD  .M          26.400000               :Elevation of Depth Reference (LMF) above Permanent Datum
#--------------------------------------------------
~CURVE INFORMATION
#MNEM.UNIT   API CODE DESCRIPTION
#---- -----  -------- -----------------------
DEPTH.M               :DEPTH (BOREHOLE)
AT10 .OHMM            :Array Induction Two Foot Resistivity A10
AT20 .OHMM            :Array Induction Two Foot Resistivity A20
AT30 .OHMM            :Array Induction Two Foot Resistivity A30
AT60 .OHMM            :Array Induction Two Foot Resistivity A60
AT90 .OHMM            :Array Induction Two Foot Resistivity A90
CALI .IN              :Caliper
DRHO .G/C3            :Bulk Density Correction
DT2  .US/F            :Delta-T Shear - Upper Dipole
DTCO .US/F            :Delta-T Compressional
DTSM .US/F            :Delta-T Shear
GR   .GAPI            :Gamma Ray
PEF  .                :Photoelectric Factor
PR   .                :Poisson Shear/Compressional Ratio
RHOB .G/C3            :Bulk Density
RT   .OHMM            :True Resistivity
SPHI .V/V             :Sonic Porosity
TNPH .V/V             :Thermal Neutron Porosity
VPVS .                :Compressional to Shear Velosity Ratio
#--------------------------------------------------
# 
#    DEPTH       AT10        AT20        AT30        AT60        AT90        CALI        DRHO         DT2        DTCO        DTSM         GR          PEF         PR         RHOB         RT         SPHI        TNPH        VPVS     
#                                                                                                                                                                                                                                     
~A  
# ...
 4199.6868      67.905      52.599      40.673      33.883      28.885       8.541       0.015     110.497      65.862     110.497      26.576       2.806       0.224       2.459      24.043       0.094       0.077       1.678
 4199.5344      68.673      51.528      39.631      31.538      27.225       8.538       0.012     109.541      65.614     109.541      27.399       2.635       0.220       2.457      24.438       0.092       0.075       1.669
 4199.3820      73.867      54.312      39.414      29.757      25.974       8.570       0.006     112.298      64.507     112.298      26.129       2.537       0.254       2.455      24.525       0.082       0.068       1.741
 4199.2296      72.555      53.172      38.564      28.363      24.938       8.732      -0.004     112.365      66.127     112.365      28.270       2.519       0.235       2.469      24.417       0.096       0.070       1.699
 4199.0772      64.063      46.478      35.410      26.441      23.379       8.710      -0.004     111.516      66.317     111.516      32.689       2.595       0.226       2.489      24.199       0.097       0.069       1.682
 4198.9248      62.626      44.789      34.168      25.491      22.611       8.617      -0.004     109.741      71.776     109.741      33.576       2.576       0.126       2.500      23.936       0.137       0.073       1.529
 4198.7724      70.799      48.836      36.079      26.378      23.278       8.573      -0.004     109.790      70.433     109.790      30.494       2.513       0.150       2.505      23.668       0.128       0.072       1.559
 4198.6200      79.697      52.845      37.560      27.209      23.858       8.580      -0.006     110.602      70.600     110.602      26.315       2.497       0.156       2.486      23.428       0.129       0.080       1.567
 4198.4676      80.940      53.485      37.989      27.642      24.071       8.578      -0.005     109.324      66.899     109.324      25.421       2.362       0.201       2.477      23.234       0.102       0.080       1.634
 4198.3152      76.560      51.851      37.567      27.218      23.706       8.578      -0.006     109.630      66.922     109.630      24.957       2.331       0.203       2.467      23.085       0.102       0.080       1.638
 4198.1628      70.974      49.685      36.730      26.890      23.454       8.570      -0.001     108.973      67.504     108.973      24.780       2.344       0.189       2.475      22.963       0.107       0.077       1.614
 4198.0104      67.458      48.346      35.964      26.624      23.230       8.543       0.001     104.335      67.939     104.335      26.313       2.300       0.132       2.479      22.849       0.110       0.079       1.536
 4197.8580      66.697      48.101      35.776      26.450      23.075       8.481      -0.000     106.464      67.422     106.464      25.163       2.271       0.165       2.474      22.738       0.106       0.076       1.579
 4197.7056      66.203      47.898      35.540      26.301      22.955       8.392      -0.002     104.891      66.854     104.891      23.503       2.247       0.158       2.466      22.627       0.101       0.074       1.569
 4197.5532      64.311      47.010      34.957      25.905      22.652       8.367      -0.002     103.335      64.691     103.335      20.705       2.204       0.178       2.457      22.515       0.084       0.075       1.597
 4197.4008      62.687      45.944      34.358      25.631      22.427       8.377      -0.007     105.927      66.017     105.927      20.194       2.183       0.182       2.447      22.401       0.095       0.075       1.605
 4197.2484      63.225      45.714      34.113      25.198      22.101       8.372      -0.010     107.903      66.566     107.903      21.089       2.124       0.193       2.444      22.289       0.099       0.071       1.621
 4197.0960      65.190      46.316      34.242      25.109      22.020       8.369      -0.010     110.023      66.718     110.023      22.744       2.166       0.209       2.442      22.187       0.100       0.071       1.649
 4196.9436      66.304      46.806      34.291      25.010      21.948       8.389      -0.007     111.162      66.745     111.162      24.277       2.140       0.218       2.433      22.107       0.101       0.076       1.665
 4196.7912      65.857      46.375      34.181      24.819      21.778       8.366      -0.006     111.997      66.141     111.997      25.554       2.126       0.232       2.434      22.063       0.096       0.083       1.693
 4196.6388      65.407      45.904      34.059      24.654      21.635       8.390      -0.003     112.032      68.391     112.032      24.802       2.128       0.203       2.441      22.065       0.113       0.086       1.638
 4196.4864      66.296      46.530      34.435      24.775      21.745       8.364      -0.001     112.371      66.164     112.371      23.795       2.142       0.235       2.451      22.108       0.096       0.088       1.698
 4196.3340      67.593      47.394      34.667      24.819      21.849       8.344      -0.001     112.975      66.733     112.975      23.667       2.196       0.232       2.454      22.170       0.101       0.086       1.693
 4196.1816      68.137      47.632      34.879      25.127      22.015       8.348      -0.005     112.465      66.792     112.465      24.164       2.238       0.228       2.451      22.232       0.101       0.079       1.684
 4196.0292      67.611      47.266      34.771      25.019      22.067       8.337      -0.007     112.165      63.715     112.165      23.517       2.256       0.262       2.447      22.280       0.076       0.070       1.760
 4195.8768      66.058      46.393      34.497      24.874      22.028       8.350      -0.011     112.597      63.673     112.597      25.444       2.311       0.265       2.436      22.316       0.075       0.072       1.768
 4195.7244      64.748      45.551      34.051      24.687      21.986       8.337      -0.013     112.636      64.333     112.636      25.956       2.304       0.258       2.436      22.348       0.081       0.083       1.751
 4195.5720      65.228      45.541      34.076      24.666      21.980       8.343      -0.012     112.453      66.720     112.453      27.370       2.380       0.228       2.433      22.382       0.100       0.085       1.685
 4195.4196      67.817      46.471      34.394      24.891      22.185       8.348      -0.010     112.066      66.955     112.066      25.334       2.366       0.222       2.435      22.434       0.102       0.082       1.674
 4195.2672      71.221      47.502      34.661      24.988      22.407       8.337      -0.011     111.671      69.534     111.671      24.303       2.488       0.183       2.428      22.533       0.122       0.079       1.606
 4195.1148      72.199      47.310      34.457      25.204      22.507       8.343      -0.012     111.609      68.754     111.609      24.431       2.478       0.194       2.428      22.708       0.116       0.082       1.623
 4194.9624      68.525      45.315      33.885      24.823      22.197       8.343      -0.009     111.785      67.757     111.785      24.285       2.375       0.210       2.436      22.958       0.108       0.078       1.650
 4194.8100      63.304      42.798      32.759      24.592      21.967       8.343      -0.011     111.734      67.231     111.734      26.083       2.250       0.216       2.437      23.254       0.104       0.074       1.662
 4194.6576      61.129      42.053      32.604      24.413      22.020       8.341      -0.011     111.301      65.104     111.301      28.110       2.197       0.240       2.442      23.555       0.087       0.073       1.710
 4194.5052      61.986      43.230      33.704      25.499      22.963       8.341      -0.009     111.046      66.416     111.046      29.643       2.226       0.222       2.437      23.832       0.098       0.081       1.672
 4194.3528      63.224      45.055      35.200      26.882      24.232       8.346      -0.009     111.073      66.701     111.073      27.747       2.220       0.218       2.436      24.072       0.100       0.084       1.665
