~VERSION INFORMATION
VERS.           2.0  :CWLS Log ASCII Standard - VERSION 2.0
WRAP.           NO   :One Line per depth step
CREA. 20000721 15.47 :LAS Creation date <yyyymmdd hh.mm>
#--------------------------------------------------
~WELL INFORMATION
#MNEM.UNIT      DATA             DESCRIPTION
#---- ------ --------------   -----------------------------
STRT .M      4775.7588      :START DEPTH
STOP .M      3909.0600      :STOP DEPTH
STEP .M        -0.1524      :STEP
NULL .          -999.25     :NULL VALUE
COMP .        INPEX BROWSE, LTD.                       :COMPANY
WELL .        GORGONICHTHYS-1                          :WELL
FLD  .        EXPLORATION                              :FIELD
LOC  .        Permit WA-285-P                          :LOCATION
CNTY .        SEDCO-703                                :COUNTY
STAT .        WA                                       :STATE
CTRY .        AUSTRALIA                                :COUNTRY
SRVC .        Schlumberger                             :SERVICE COMPANY
API  .                                                 :API NUMBER
DATE .        12:43:45  Friday, July 21, 2000          :LOG DATE
UWI  .                                                 :UNIQUE WELL ID
#--------------------------------------------------
~PARAMETER INFORMATION
#MNEM.UNIT    VALUE                      DESCRIPTION
#---- -----   --------------------       ------------------------
PDAT .        L.A.T.                     :Permanent Datum
EPD  .M           0.000000               :Elevation of Permanent Datum above Mean Sea Level
LMF  .          Drill Floor              :Logging Measured From (Name of Logging Elevation Reference)
APD  .M          26.400000               :Elevation of Depth Reference (LMF) above Permanent Datum
#--------------------------------------------------
~CURVE INFORMATION
#MNEM.UNIT   API CODE DESCRIPTION
#---- -----  -------- -----------------------
DEPTH.M               :DEPTH (BOREHOLE)
AT10 .OHMM            :Array Induction Two Foot Resistivity A10
AT20 .OHMM            :Array Induction Two Foot Resistivity A20
AT30 .OHMM            :Array Induction Two Foot Resistivity A30
AT60 .OHMM            :Array Induction Two Foot Resistivity A60
AT90 .OHMM            :Array Induction Two Foot Resistivity A90
CALI .IN              :Caliper
DRHO .G/C3            :Bulk Density Correction
DT2  .US/F            :Delta-T Shear - Upper Dipole
DTCO .US/F            :Delta-T Compressional
DTSM .US/F            :Delta-T Shear
GR   .GAPI            :Gamma Ray
PEF  .                :Photoelectric Factor
PR   .                :Poisson Shear/Compressional Ratio
RHOB .G/C3            :Bulk Density
RT   .OHMM            :True Resistivity
SPHI .V/V             :Sonic Porosity
TNPH .V/V             :Thermal Neutron Porosity
VPVS .                :Compressional to Shear Velosity Ratio
#--------------------------------------------------
# 
#    DEPTH       AT10        AT20        AT30        AT60        AT90        CALI        DRHO         DT2        DTCO        DTSM         GR          PEF         PR         RHOB         RT         SPHI        TNPH        VPVS     
#                                                                                                                                                                                                                                     
~A  
# ...
 4375.2516      13.823      13.704      13.217      12.654      12.382       8.730       0.059     112.202      70.372     112.202     119.819       4.584       0.176       2.609      12.033       0.128       0.174       1.594
 4375.0992      14.767      14.656      13.862      13.152      12.853       8.662       0.017     117.282      72.900     117.282     126.211       3.914       0.185       2.584      12.207       0.145       0.168       1.609
 4374.9468      15.679      15.716      14.798      13.967      13.607       8.603       0.005     125.138      73.799     125.138     125.448       3.708       0.233       2.592      12.443       0.151       0.173       1.696
 4374.7944      16.202      16.415      15.417      14.554      14.133       8.596       0.003     127.186      75.994     127.186     127.565       3.440       0.222       2.597      12.710       0.164       0.199       1.674
 4374.6420      16.277      16.619      15.462      14.396      13.985       8.607      -0.006     132.988      76.457     132.988     134.089       3.346       0.253       2.599      12.943       0.167       0.242       1.739
 4374.4896      16.230      16.664      15.326      14.289      13.840       8.579       0.004     134.590      76.819     134.590     140.721       3.207       0.258       2.617      13.076       0.169       0.237       1.752
 4374.3372      16.159      16.642      15.301      14.305      13.816       8.565       0.009     134.352      77.985     134.352     145.074       3.357       0.246       2.617      13.072       0.176       0.240       1.723
 4374.1848      15.747      16.271      15.212      14.346      13.823       8.566       0.015     133.763      76.980     133.763     143.150       3.300       0.252       2.620      12.947       0.170       0.218       1.738
 4374.0324      15.073      15.671      14.829      14.071      13.551       8.608       0.018     133.710      74.095     133.710     146.542       3.360       0.278       2.620      12.741       0.153       0.210       1.805
 4373.8800      14.590      15.279      14.449      13.766      13.244       8.640       0.037     132.413      73.173     132.413     142.552       3.421       0.280       2.640      12.490       0.147       0.187       1.810
 4373.7276      14.287      15.012      14.131      13.484      12.961       8.700       0.030     132.731      72.292     132.731     137.401       3.456       0.289       2.642      12.214       0.141       0.185       1.836
 4373.5752      13.840      14.520      13.648      13.054      12.546       8.717       0.029     130.886      71.776     130.886     132.250       3.437       0.285       2.630      11.925       0.137       0.185       1.824
 4373.4228      13.203      13.834      13.008      12.483      11.998       8.665       0.072     129.130      71.012     129.130     129.639       3.375       0.283       2.674      11.627       0.132       0.196       1.818
 4373.2704      12.608      13.173      12.423      11.972      11.512       8.661       0.066     128.836      69.869     128.836     128.584       3.757       0.292       2.676      11.330       0.124       0.181       1.844
 4373.1180      12.320      12.798      12.078      11.653      11.202       8.693       0.048     129.298      69.643     129.298     124.740       4.401       0.296       2.694      11.049       0.122       0.174       1.857
 4372.9656      12.159      12.592      11.835      11.442      10.989       8.718       0.089     129.354      68.661     129.354     115.669       4.604       0.304       2.782      10.808       0.115       0.165       1.884
 4372.8132      11.667      12.118      11.469      11.140      10.695       8.801       0.123     126.288      68.338     126.288     115.301       4.896       0.293       2.818      10.639       0.113       0.169       1.848
 4372.6608      11.127      11.624      11.095      10.851      10.417       8.975       0.085     124.862      68.352     124.862     113.670       4.610       0.286       2.686      10.539       0.113       0.158       1.827
 4372.5084      10.995      11.547      11.039      10.722      10.292       9.174       0.131     123.771      67.029     123.771     120.997       4.546       0.293       2.630      10.449       0.103       0.142       1.847
 4372.3560      11.109      11.713      11.198      10.813      10.372       9.026       0.168     121.710      67.612     121.710     118.325       4.806       0.277       2.588      10.361       0.107       0.130       1.800
 4372.2036      11.051      11.640      11.236      10.786      10.341       8.963       0.196     119.193      66.942     119.193     120.051       5.053       0.270       2.596      10.333       0.102       0.122       1.781
 4372.0512      10.921      11.504      11.189      10.671      10.225       9.273       0.204     118.123      66.315     118.123     119.316       5.438       0.270       2.611      10.403       0.097       0.122       1.781
 4371.8988      11.257      11.963      11.374      10.843      10.393       8.840       0.245     119.125      67.353     119.125     123.043       5.386       0.265       2.687      10.559       0.105       0.120       1.769
 4371.7464      12.224      13.071      11.973      11.467      10.975       8.801       0.224     119.602      66.863     119.602     125.895       5.028       0.273       2.671      10.770       0.102       0.119       1.789
 4371.5940      13.143      13.963      12.595      11.969      11.429       8.943       0.199     121.300      66.817     121.300     118.742       4.543       0.282       2.594      11.023       0.101       0.109       1.815
 4371.4416      13.076      13.798      12.875      12.226      11.675       9.073       0.176     124.588      66.039     124.588     116.311       4.261       0.305       2.512      11.320       0.095       0.103       1.887
 4371.2892      12.471      13.200      12.545      12.017      11.499       9.021       0.179     124.188      65.538     124.188     119.389       4.730       0.307       2.475      11.677       0.091       0.101       1.895
 4371.1368      12.387      13.216      12.746      12.243      11.717       9.003       0.176     123.768      66.901     123.768     128.852       5.331       0.294       2.453      12.119       0.102       0.114       1.850
 4370.9844      13.219      14.097      13.828      13.421      12.813       9.262       0.178     124.382      68.164     124.382     126.748       5.966       0.285       2.416      12.627       0.112       0.121       1.825
 4370.8320      15.224      16.146      15.683      14.855      14.097       9.343       0.171     116.173      68.729     116.173     112.801       6.734       0.231       2.374      13.123       0.116       0.120       1.690
 4370.6796      17.809      19.267      18.350      17.078      16.078       9.081       0.153     113.460      69.786     113.460     101.412       7.495       0.196       2.349      13.497       0.123       0.111       1.626
 4370.5272      17.730      19.715      18.755      17.342      16.311       9.249       0.173     102.194      69.675     102.194      88.508       7.601       0.066       2.413      13.673       0.123       0.105       1.467
 4370.3748      15.649      17.291      16.589      15.185      14.376       9.415       0.137      94.357      69.477      94.357      88.123       7.701       0.066       2.421      13.653       0.121       0.103       1.467
 4370.2224      15.273      16.614      15.583      14.722      13.939       9.315       0.084      93.286      67.653      93.286      86.609       7.578    -999.250       2.416      13.490       0.108       0.097    -999.250
 4370.0700      16.760      17.806      15.598      14.655      13.852       8.758       0.069      91.369      65.653      91.369      89.844       7.716    -999.250       2.487      13.245       0.092       0.092    -999.250
 4369.9176      17.467      17.937      15.879      15.017      14.171       8.593       0.090      95.890      63.873      95.890      89.759       6.520       0.101       2.619      12.964       0.077       0.097       1.501
