~VERSION INFORMATION
VERS.           2.0  :CWLS Log ASCII Standard - VERSION 2.0
WRAP.           NO   :One Line per depth step
CREA. 20000721 15.47 :LAS Creation date <yyyymmdd hh.mm>
#--------------------------------------------------
~WELL INFORMATION
#MNEM.UNIT      DATA             DESCRIPTION
#---- ------ --------------   -----------------------------
STRT .M      4775.7588      :START DEPTH
STOP .M      3909.0600      :STOP DEPTH
STEP .M        -0.1524      :STEP
NULL .          -999.25     :NULL VALUE
COMP .        INPEX BROWSE, LTD.                       :COMPANY
WELL .        GORGONICHTHYS-1                          :WELL
FLD  .        EXPLORATION                              :FIELD
LOC  .        Permit WA-285-P                          :LOCATION
CNTY .        SEDCO-703                                :COUNTY
STAT .        WA                                       :STATE
CTRY .        AUSTRALIA                                :COUNTRY
SRVC .        Schlumberger                             :SERVICE COMPANY
API  .                                                 :API NUMBER
DATE .        12:43:45  Friday, July 21, 2000          :LOG DATE
UWI  .                                                 :UNIQUE WELL ID
#--------------------------------------------------
~PARAMETER INFORMATION
#MNEM.UNIT    VALUE                      DESCRIPTION
#---- -----   --------------------       ------------------------
PDAT .        L.A.T.                     :Permanent Datum
EPD  .M           0.000000               :Elevation of Permanent Datum above Mean Sea Level
LMF  .          Drill Floor              :Logging Measured From (Name of Logging Elevation Reference)
APD  .M          26.400000               :Elevation of Depth Reference (LMF) above Permanent Datum
#--------------------------------------------------
~CURVE INFORMATION
#MNEM.UNIT   API CODE DESCRIPTION
#---- -----  -------- -----------------------
DEPTH.M               :DEPTH (BOREHOLE)
AT10 .OHMM            :Array Induction Two Foot Resistivity A10
AT20 .OHMM            :Array Induction Two Foot Resistivity A20
AT30 .OHMM            :Array Induction Two Foot Resistivity A30
AT60 .OHMM            :Array Induction Two Foot Resistivity A60
AT90 .OHMM            :Array Induction Two Foot Resistivity A90
CALI .IN              :Caliper
DRHO .G/C3            :Bulk Density Correction
DT2  .US/F            :Delta-T Shear - Upper Dipole
DTCO .US/F            :Delta-T Compressional
DTSM .US/F            :Delta-T Shear
GR   .GAPI            :Gamma Ray
PEF  .                :Photoelectric Factor
PR   .                :Poisson Shear/Compressional Ratio
RHOB .G/C3            :Bulk Density
RT   .OHMM            :True Resistivity
SPHI .V/V             :Sonic Porosity
TNPH .V/V             :Thermal Neutron Porosity
VPVS .                :Compressional to Shear Velosity Ratio
#--------------------------------------------------
# 
#    DEPTH       AT10        AT20        AT30        AT60        AT90        CALI        DRHO         DT2        DTCO        DTSM         GR          PEF         PR         RHOB         RT         SPHI        TNPH        VPVS     
#                                                                                                                                                                                                                                     
~A  
# ...
 4720.8948      36.865      37.877      21.305      15.710      16.605      10.043       0.207     142.953      68.140     142.953     139.741       7.786       0.353       2.355      15.804       0.111       0.120       2.098
 4720.7424      46.740      52.248      31.515      27.266      28.835      10.005       0.202     124.751      66.052     124.751     142.050       8.953       0.305       2.341      18.089       0.095       0.118       1.889
 4720.5900      40.290      46.875      33.641      28.784      30.192       9.760       0.214      97.365      64.986      97.365     140.491       9.314       0.098       2.367      20.749       0.086       0.129       1.498
 4720.4376      32.224      37.942      31.413      31.423      31.978       9.728       0.211      89.214      61.972      89.214     130.373       8.029       0.034       2.371      23.168       0.060       0.131       1.440
 4720.2852      28.563      33.343      28.955      31.250      31.519      10.601       0.205      88.852      63.412      88.852     132.115       7.991       0.034       2.361      24.703       0.073       0.128       1.440
 4720.1328      25.174      29.492      27.141      27.028      27.311       9.719       0.153      97.739      64.151      97.739     136.850       8.085       0.122       2.327      25.321       0.079       0.140       1.524
 4719.9804      20.910      23.883      22.694      23.636      23.766       9.408       0.176      93.077      62.525      93.077     133.477       7.518       0.089       2.446      25.379       0.065       0.138       1.489
 4719.8280      19.462      20.352      19.658      20.246      20.326       8.780       0.219      96.158      64.432      96.158     112.162       6.424       0.093       2.624      25.129       0.082       0.132       1.492
 4719.6756      22.773      21.997      21.890      21.668      21.931       8.720       0.212     104.974      61.113     104.974      99.135       5.037       0.244       2.624      24.824       0.052       0.114       1.718
 4719.5232      29.460      27.889      25.348      25.386      25.674       9.015       0.133     113.707      61.391     113.707     100.125       4.837       0.294       2.512      24.737       0.055       0.112       1.852
 4719.3708      32.634      31.620      28.743      27.938      28.397       8.757       0.129     113.991      61.749     113.991     116.242       5.545       0.292       2.495      24.911       0.058       0.121       1.846
 4719.2184      32.368      32.292      27.844      28.268      28.629       9.058       0.138     112.163      63.215     112.163     120.982       5.499       0.267       2.535      25.199       0.071       0.125       1.774
 4719.0660      31.795      31.899      26.954      25.783      26.338       9.217       0.079     109.492      64.063     109.492     115.436       5.670       0.240       2.416      25.375       0.079       0.140       1.709
 4718.9136      30.071      29.687      27.466      24.693      25.672       8.943       0.048     113.126      64.520     113.126     113.883       5.903       0.259       2.373      25.246       0.083       0.148       1.753
 4718.7612      28.115      27.839      27.075      23.969      25.338       8.942       0.082     115.069      64.249     115.069     111.315       8.323       0.274       2.413      24.741       0.080       0.134       1.791
 4718.6088      27.275      27.504      26.315      22.429      24.208       9.446       0.117     104.844      65.787     104.844     109.576       7.880       0.175       2.451      23.815       0.093       0.103       1.594
 4718.4564      27.358      27.960      24.989      20.766      22.706       9.555       0.120      94.627      64.978      94.627     101.148       7.165       0.054       2.408      22.421       0.086       0.097       1.456
 4718.3040      25.793      26.496      23.471      19.560      21.302       9.123       0.116      97.430      68.351      97.430     104.334       6.689       0.015       2.381      20.719       0.113       0.104       1.425
 4718.1516      21.587      22.088      21.611      18.321      19.774       8.900       0.104      96.459      70.090      96.459     111.835       6.142       0.015       2.444      19.022       0.126       0.116       1.425
 4717.9992      17.546      17.790      18.017      16.499      17.425       8.692       0.094     102.193      70.752     102.193     130.119       5.276       0.040       2.525      17.540       0.130       0.102       1.444
 4717.8468      15.000      15.136      15.863      15.113      15.744       8.579       0.064     109.740      71.038     109.740     132.966       4.309       0.139       2.610      16.316       0.132       0.101       1.545
 4717.6944      13.645      13.830      14.116      14.303      14.743       8.557       0.012     115.473      70.886     115.473     130.871       3.894       0.198       2.647      15.477       0.131       0.097       1.629
 4717.5420      12.640      12.874      12.610      13.223      13.471       8.527      -0.001     121.126      68.383     121.126     110.414       3.396       0.266       2.683      15.095       0.113       0.124       1.771
 4717.3896      11.198      11.208      11.496      13.056      13.238       8.519      -0.001     124.752      69.543     124.752      90.089       3.320       0.275       2.727      15.192       0.122       0.160       1.794
 4717.2372       9.828       9.642      10.671      13.161      13.328       8.493      -0.002     125.566      68.008     125.566      66.796       3.926       0.292       2.767      15.744       0.110       0.210       1.846
 4717.0848       9.753       9.767      11.118      14.959      15.155       8.459      -0.003     122.401      64.785     122.401      47.529       4.784       0.305       2.783      16.944       0.085       0.218       1.889
 4716.9324      12.141      12.848      13.158      17.781      17.990       8.460       0.000     118.227      66.432     118.227      36.740       5.307       0.269       2.776      19.028       0.098       0.207       1.780
 4716.7800      19.513      21.823      19.703      22.199      22.326       8.444       0.003     117.041      66.810     117.041      33.599       4.695       0.258       2.742      22.105       0.101       0.199       1.752
 4716.6276      37.438      44.108      35.377      30.805      30.938       8.438       0.004     113.198      61.267     113.198      32.901       4.485       0.293       2.714      26.307       0.054       0.184       1.848
 4716.4752      63.993      84.582      69.892      46.092      45.928       8.463       0.005     112.348      59.226     112.348      34.105       4.364       0.308       2.693      32.760       0.034       0.186       1.897
 4716.3228      93.365     120.078      90.935      66.706      65.287       8.453       0.001     109.932      58.768     109.932      32.788       4.205       0.300       2.685      43.537       0.029       0.183       1.871
 4716.1704      90.027     121.559     113.698     101.125      94.189       8.463      -0.003     108.431      57.089     108.431      31.240       4.036       0.308       2.679      59.905       0.012       0.192       1.899
 4716.0180      86.987     123.302     130.727     119.448     113.286       8.458      -0.009     107.631      61.158     107.631      31.520       4.163       0.262       2.678      79.782       0.053       0.197       1.760
 4715.8656     101.376     134.701     145.850     145.468     134.585       8.479      -0.008     107.270      59.367     107.270      31.483       4.751       0.279       2.682      96.523       0.035       0.199       1.807
 4715.7132     104.556     136.678     147.113     193.989     174.513       8.466      -0.008     108.009      59.922     108.009      33.162       4.931       0.278       2.670     107.644       0.041       0.204       1.802
 4715.5608      86.364     115.973     129.372     163.253     143.293       8.465      -0.007     110.110      62.352     110.110      33.664       4.740       0.264       2.660     108.019       0.064       0.203       1.766
