~VERSION INFORMATION
VERS.           2.0  :CWLS Log ASCII Standard - VERSION 2.0
WRAP.           NO   :One Line per depth step
CREA. 20000721 15.47 :LAS Creation date <yyyymmdd hh.mm>
#--------------------------------------------------
~WELL INFORMATION
#MNEM.UNIT      DATA             DESCRIPTION
#---- ------ --------------   -----------------------------
STRT .M      4775.7588      :START DEPTH
STOP .M      3909.0600      :STOP DEPTH
STEP .M        -0.1524      :STEP
NULL .          -999.25     :NULL VALUE
COMP .        INPEX BROWSE, LTD.                       :COMPANY
WELL .        GORGONICHTHYS-1                          :WELL
FLD  .        EXPLORATION                              :FIELD
LOC  .        Permit WA-285-P                          :LOCATION
CNTY .        SEDCO-703                                :COUNTY
STAT .        WA                                       :STATE
CTRY .        AUSTRALIA                                :COUNTRY
SRVC .        Schlumberger                             :SERVICE COMPANY
API  .                                                 :API NUMBER
DATE .        12:43:45  Friday, July 21, 2000          :LOG DATE
UWI  .                                                 :UNIQUE WELL ID
#--------------------------------------------------
~PARAMETER INFORMATION
#MNEM.UNIT    VALUE                      DESCRIPTION
#---- -----   --------------------       ------------------------
PDAT .        L.A.T.                     :Permanent Datum
EPD  .M           0.000000               :Elevation of Permanent Datum above Mean Sea Level
LMF  .          Drill Floor              :Logging Measured From (Name of Logging Elevation Reference)
APD  .M          26.400000               :Elevation of Depth Reference (LMF) above Permanent Datum
#--------------------------------------------------
~CURVE INFORMATION
#MNEM.UNIT   API CODE DESCRIPTION
#---- -----  -------- -----------------------
DEPTH.M               :DEPTH (BOREHOLE)
AT10 .OHMM            :Array Induction Two Foot Resistivity A10
AT20 .OHMM            :Array Induction Two Foot Resistivity A20
AT30 .OHMM            :Array Induction Two Foot Resistivity A30
AT60 .OHMM            :Array Induction Two Foot Resistivity A60
AT90 .OHMM            :Array Induction Two Foot Resistivity A90
CALI .IN              :Caliper
DRHO .G/C3            :Bulk Density Correction
DT2  .US/F            :Delta-T Shear - Upper Dipole
DTCO .US/F            :Delta-T Compressional
DTSM .US/F            :Delta-T Shear
GR   .GAPI            :Gamma Ray
PEF  .                :Photoelectric Factor
PR   .                :Poisson Shear/Compressional Ratio
RHOB .G/C3            :Bulk Density
RT   .OHMM            :True Resistivity
SPHI .V/V             :Sonic Porosity
TNPH .V/V             :Thermal Neutron Porosity
VPVS .                :Compressional to Shear Velosity Ratio
#--------------------------------------------------
# 
#    DEPTH       AT10        AT20        AT30        AT60        AT90        CALI        DRHO         DT2        DTCO        DTSM         GR          PEF         PR         RHOB         RT         SPHI        TNPH        VPVS     
#                                                                                                                                                                                                                                     
~A  
# ...
 4605.6804       7.455       7.820       7.517       7.582       7.340       9.043       0.128     147.491      77.234     147.491     137.624       4.347       0.311       2.492       7.454       0.172       0.317       1.910
 4605.5280       7.148       7.505       7.205       7.166       6.941       9.125       0.162     148.953      76.075     148.953     136.293       5.019       0.324       2.456       7.373       0.165       0.341       1.958
 4605.3756       7.170       7.521       7.249       7.106       6.887       9.175       0.138     145.275      77.746     145.275     136.256       5.106       0.299       2.365       7.359       0.175       0.333       1.869
 4605.2232       7.617       7.946       7.638       7.437       7.190       8.985       0.093     144.754      77.571     144.754     127.608       6.164       0.299       2.312       7.404       0.174       0.333       1.866
 4605.0708       8.407       8.735       8.320       7.998       7.706       8.752       0.061     141.405      74.159     141.405     120.262       5.855       0.310       2.369       7.460       0.153       0.299       1.907
 4604.9184       8.903       9.298       8.813       8.395       8.069       8.715       0.040     139.708      73.761     139.708     114.189       4.528       0.307       2.536       7.495       0.150       0.299       1.894
 4604.7660       8.625       9.075       8.600       8.205       7.890       8.676       0.010     136.670      72.684     136.670     120.696       4.067       0.303       2.670       7.510       0.143       0.276       1.880
 4604.6136       8.277       8.734       8.281       7.937       7.633       8.709       0.002     139.219      71.191     139.219     127.445       3.260       0.323       2.677       7.566       0.133       0.283       1.956
 4604.4612       8.398       8.844       8.325       8.000       7.685       8.695       0.001     143.145      70.136     143.145     130.096       3.392       0.342       2.637       7.681       0.126       0.290       2.041
 4604.3088       8.905       9.354       8.743       8.343       7.997       8.692      -0.001     141.846      71.293     141.846     132.589       2.833       0.331       2.628       7.835       0.134       0.287       1.990
 4604.1564       9.548      10.044       9.152       8.791       8.405       8.685      -0.004     140.800      71.984     140.800     130.918       2.698       0.323       2.617       8.009       0.139       0.265       1.956
 4604.0040       9.973      10.529       9.535       9.136       8.717       8.686      -0.006     139.648      69.725     139.648     129.206       2.743       0.334       2.629       8.179       0.123       0.251       2.003
 4603.8516       9.986      10.563       9.781       9.200       8.781       8.699      -0.006     137.018      69.588     137.018     126.026       2.718       0.326       2.652       8.319       0.122       0.258       1.969
 4603.6992       9.856      10.418       9.803       9.249       8.838       8.685       0.001     137.873      69.446     137.873     123.415       3.257       0.330       2.682       8.423       0.121       0.282       1.985
 4603.5468       9.927      10.498       9.783       9.256       8.852       8.659      -0.005     136.698      68.980     136.698     128.037       3.536       0.329       2.664       8.503       0.118       0.268       1.982
 4603.3944      10.075      10.679       9.871       9.364       8.958       8.645      -0.009     137.348      68.858     137.348     129.193       3.440       0.332       2.632       8.575       0.117       0.246       1.995
 4603.2420       9.807      10.440       9.537       9.020       8.679       8.650      -0.005     138.358      70.790     138.358     133.240       3.149       0.323       2.619       8.645       0.131       0.234       1.954
 4603.0896       9.247       9.877       9.244       8.824       8.515       8.682      -0.006     141.289      70.455     141.289     135.727       2.874       0.335       2.608       8.699       0.128       0.255       2.005
 4602.9372       8.979       9.501       8.930       8.547       8.286       8.712      -0.008     139.917      71.781     139.917     130.547       2.838       0.321       2.603       8.733       0.137       0.279       1.949
 4602.7848       9.160       9.577       9.027       8.679       8.436       8.709      -0.001     139.876      73.490     139.876     121.750       2.566       0.309       2.628       8.771       0.149       0.288       1.903
 4602.6324       9.410       9.825       9.307       8.977       8.761       8.766       0.006     139.734      72.318     139.734     112.188       2.704       0.317       2.672       8.841       0.141       0.286       1.932
 4602.4800       9.319       9.760       9.372       9.030       8.842       8.747       0.009     136.309      73.112     136.309     111.674       3.155       0.298       2.680       8.955       0.146       0.273       1.864
 4602.3276       9.228       9.727       9.340       8.945       8.815       8.725       0.010     136.132      72.679     136.132     124.512       3.293       0.301       2.647       9.097       0.143       0.277       1.873
 4602.1752       9.487      10.069       9.648       9.292       9.164       8.695       0.004     133.546      72.853     133.546     129.063       2.866       0.288       2.601       9.241       0.145       0.270       1.833
 4602.0228       9.867      10.499       9.947       9.474       9.384       8.662       0.001     131.444      72.689     131.444     132.529       2.562       0.280       2.589       9.353       0.143       0.262       1.808
 4601.8704      10.086      10.733      10.263       9.926       9.840       8.669      -0.000     131.154      71.631     131.154     122.937       2.533       0.287       2.606       9.391       0.136       0.254       1.831
 4601.7180      10.133      10.793      10.319      10.105      10.011       8.655      -0.006     132.855      71.679     132.855     123.065       2.823       0.295       2.613       9.327       0.137       0.247       1.853
 4601.5656       9.835      10.532      10.144      10.041       9.956       8.641      -0.004     133.404      71.608     133.404     125.935       2.830       0.298       2.631       9.167       0.136       0.254       1.863
 4601.4132       8.961       9.642       9.221       9.258       9.192       8.660      -0.006     139.223      72.500     139.223     135.784       3.292       0.314       2.613       8.947       0.142       0.251       1.920
 4601.2608       7.971       8.528       8.394       8.498       8.424       8.663      -0.004     141.451      72.177     141.451     143.572       3.183       0.324       2.573       8.725       0.140       0.264       1.960
 4601.1084       7.445       7.925       7.979       8.135       8.054       8.775       0.034     142.061      70.838     142.061     144.577       3.458       0.335       2.548       8.555       0.131       0.279       2.005
 4600.9560       7.357       7.861       7.842       8.056       7.956       8.945       0.107     141.623      69.823     141.623     138.286       3.822       0.339       2.550       8.489       0.124       0.297       2.028
 4600.8036       7.415       7.918       7.869       7.989       7.893       9.108       0.146     141.203      69.360     141.203     133.197       4.888       0.341       2.503       8.564       0.120       0.282       2.036
 4600.6512       7.637       8.060       8.015       8.136       8.048       9.315       0.196     140.684      70.835     140.684     131.807       5.954       0.330       2.516       8.799       0.131       0.264       1.986
 4600.4988       8.262       8.607       8.565       8.658       8.549       9.190       0.227     138.140      71.289     138.140     138.868       6.216       0.318       2.539       9.202       0.134       0.242       1.938
 4600.3464       9.277       9.541       9.472       9.567       9.454       9.098       0.205     138.692      70.874     138.692     141.133       5.571       0.323       2.556       9.776       0.131       0.244       1.957
