~VERSION INFORMATION
VERS.           2.0  :CWLS Log ASCII Standard - VERSION 2.0
WRAP.           NO   :One Line per depth step
CREA. 20000721 15.47 :LAS Creation date <yyyymmdd hh.mm>
#--------------------------------------------------
~WELL INFORMATION
#MNEM.UNIT      DATA             DESCRIPTION
#---- ------ --------------   -----------------------------
STRT .M      4775.7588      :START DEPTH
STOP .M      3909.0600      :STOP DEPTH
STEP .M        -0.1524      :STEP
NULL .          -999.25     :NULL VALUE
COMP .        INPEX BROWSE, LTD.                       :COMPANY
WELL .        GORGONICHTHYS-1                          :WELL
FLD  .        EXPLORATION                              :FIELD
LOC  .        Permit WA-285-P                          :LOCATION
CNTY .        SEDCO-703                                :COUNTY
STAT .        WA                                       :STATE
CTRY .        AUSTRALIA                                :COUNTRY
SRVC .        Schlumberger                             :SERVICE COMPANY
API  .                                                 :API NUMBER
DATE .        12:43:45  Friday, July 21, 2000          :LOG DATE
UWI  .                                                 :UNIQUE WELL ID
#--------------------------------------------------
~PARAMETER INFORMATION
#MNEM.UNIT    VALUE                      DESCRIPTION
#---- -----   --------------------       ------------------------
PDAT .        L.A.T.                     :Permanent Datum
EPD  .M           0.000000               :Elevation of Permanent Datum above Mean Sea Level
LMF  .          Drill Floor              :Logging Measured From (Name of Logging Elevation Reference)
APD  .M          26.400000               :Elevation of Depth Reference (LMF) above Permanent Datum
#--------------------------------------------------
~CURVE INFORMATION
#MNEM.UNIT   API CODE DESCRIPTION
#---- -----  -------- -----------------------
DEPTH.M               :DEPTH (BOREHOLE)
AT10 .OHMM            :Array Induction Two Foot Resistivity A10
AT20 .OHMM            :Array Induction Two Foot Resistivity A20
AT30 .OHMM            :Array Induction Two Foot Resistivity A30
AT60 .OHMM            :Array Induction Two Foot Resistivity A60
AT90 .OHMM            :Array Induction Two Foot Resistivity A90
CALI .IN              :Caliper
DRHO .G/C3            :Bulk Density Correction
DT2  .US/F            :Delta-T Shear - Upper Dipole
DTCO .US/F            :Delta-T Compressional
DTSM .US/F            :Delta-T Shear
GR   .GAPI            :Gamma Ray
PEF  .                :Photoelectric Factor
PR   .                :Poisson Shear/Compressional Ratio
RHOB .G/C3            :Bulk Density
RT   .OHMM            :True Resistivity
SPHI .V/V             :Sonic Porosity
TNPH .V/V             :Thermal Neutron Porosity
VPVS .                :Compressional to Shear Velosity Ratio
#--------------------------------------------------
# 
#    DEPTH       AT10        AT20        AT30        AT60        AT90        CALI        DRHO         DT2        DTCO        DTSM         GR          PEF         PR         RHOB         RT         SPHI        TNPH        VPVS     
#                                                                                                                                                                                                                                     
~A  
 4775.7588       4.675       4.591       4.656       4.755       4.827       8.041       0.154     167.465      79.789     167.465     195.824       6.827       0.353       2.749     210.536       0.186       0.434       2.099
 4775.6064       4.675       4.591       4.655       4.755       4.827       8.041       0.154     167.465      79.789     167.465     195.824       6.827       0.353       2.749       4.801       0.186       0.434       2.099
 4775.4540       4.675       4.591       4.655       4.756       4.827       8.041       0.154     167.465      79.789     167.465     195.824       6.827       0.353       2.749       4.801       0.186       0.434       2.099
 4775.3016       4.675       4.591       4.655       4.756       4.827       8.041       0.154     167.465      79.789     167.465     195.824       6.827       0.353       2.749       4.801       0.186       0.434       2.099
 4775.1492       4.675       4.591       4.655       4.756       4.827       8.041       0.154     167.465      79.789     167.465     195.824       6.827       0.353       2.749       4.801       0.186       0.434       2.099
 4774.9968       4.675       4.591       4.655       4.756       4.827       8.041       0.154     167.465      79.789     167.465     195.824       6.827       0.353       2.749       4.801       0.186       0.434       2.099
 4774.8444       4.675       4.591       4.655       4.756       4.827       8.041       0.154     167.465      79.789     167.465     195.824       6.827       0.353       2.749       4.802       0.186       0.434       2.099
 4774.6920       4.675       4.591       4.655       4.756       4.827       8.041       0.154     167.465      79.789     167.465     195.824       6.827       0.353       2.749       4.802       0.186       0.434       2.099
 4774.5396       4.675       4.591       4.655       4.756       4.827       8.041       0.154     167.465      79.789     167.465     195.824       6.827       0.353       2.749       4.803       0.186       0.434       2.099
 4774.3872       4.675       4.591       4.655       4.756       4.827       8.041       0.154     167.465      79.789     167.465     195.824       6.827       0.353       2.749       4.803       0.186       0.434       2.099
 4774.2348       4.675       4.591       4.655       4.756       4.827       8.041       0.154     167.465      79.789     167.465     195.824       6.827       0.353       2.749       4.803       0.186       0.434       2.099
 4774.0824       4.675       4.591       4.656       4.756       4.827       8.041       0.154     167.465      79.789     167.465     195.824       6.827       0.353       2.749       4.803       0.186       0.434       2.099
 4773.9300       4.675       4.591       4.656       4.756       4.827       8.041       0.154     167.465      79.789     167.465     195.824       6.827       0.353       2.749       4.803       0.186       0.434       2.099
 4773.7776       4.675       4.592       4.656       4.756       4.827       8.041       0.154     167.465      79.789     167.465     195.824       6.827       0.353       2.749       4.803       0.186       0.434       2.099
 4773.6252       4.675       4.592       4.656       4.757       4.827       8.041       0.154     167.465      79.789     167.465     195.824       6.827       0.353       2.749       4.803       0.186       0.434       2.099
 4773.4728       4.675       4.592       4.656       4.757       4.827       8.041       0.154     167.465      79.789     167.465     195.824       6.827       0.353       2.749       4.803       0.186       0.434       2.099
 4773.3204       4.675       4.591       4.655       4.757       4.826       8.041       0.154     167.465      79.789     167.465     195.824       6.827       0.353       2.749       4.803       0.186       0.434       2.099
 4773.1680       4.674       4.590       4.655       4.756       4.826       8.041       0.154     167.465      79.789     167.465     195.824       6.827       0.353       2.749       4.803       0.186       0.434       2.099
 4773.0156       4.674       4.590       4.655       4.756       4.825       8.041       0.154     167.465      79.789     167.465     195.824       6.827       0.353       2.749       4.802       0.186       0.434       2.099
 4772.8632       4.675       4.590       4.656       4.756       4.825       8.041       0.154     167.465      79.789     167.465     195.824       6.827       0.353       2.749       4.802       0.186       0.434       2.099
 4772.7108       4.676       4.591       4.656       4.757       4.825       8.041       0.154     167.465      79.789     167.465     195.824       6.827       0.353       2.749       4.802       0.186       0.434       2.099
 4772.5584       4.677       4.591       4.658       4.758       4.826       8.041       0.154     167.465      79.789     167.465     195.824       6.827       0.353       2.749       4.802       0.186       0.434       2.099
 4772.4060       4.676       4.590       4.657       4.759       4.826       8.041       0.154     167.465      79.789     167.465     195.824       6.827       0.353       2.749       4.802       0.186       0.434       2.099
 4772.2536       4.674       4.588       4.656       4.760       4.827       8.041       0.154     167.465      79.789     167.465     195.824       6.827       0.353       2.749       4.802       0.186       0.434       2.099
 4772.1012       4.673       4.586       4.655       4.762       4.828       8.041       0.154     167.465      79.789     167.465     195.824       6.827       0.353       2.749       4.803       0.186       0.434       2.099
 4771.9488       4.671       4.584       4.654       4.763       4.829       8.041       0.154     167.465      79.789     167.465     195.824       6.827       0.353       2.749       4.803       0.186       0.434       2.099
 4771.7964       4.670       4.581       4.655       4.764       4.831       8.041       0.154     167.465      79.789     167.465     195.824       6.827       0.353       2.749       4.804       0.186       0.434       2.099
 4771.6440       4.670       4.579       4.654       4.766       4.832       8.041       0.154     167.465      79.789     167.465     195.824       6.827       0.353       2.749       4.804       0.186       0.434       2.099
 4771.4916       4.671       4.581       4.653       4.765       4.832       8.041       0.154     167.465      79.789     167.465     195.824       6.827       0.353       2.749       4.804       0.186       0.434       2.099
 4771.3392       4.672       4.581       4.652       4.763       4.832       8.041       0.154     167.465      79.693     167.465     195.824       6.827       0.354       2.749       4.804       0.186       0.434       2.101
 4771.1868       4.671       4.579       4.651       4.762       4.831       8.041       0.154     167.465      79.860     167.465     195.824       6.827       0.353       2.749       4.804       0.187       0.434       2.097
 4771.0344       4.671       4.580       4.653       4.759       4.829       8.041       0.154     167.465      79.818     167.465     195.824       6.827       0.353       2.749       4.805       0.186       0.434       2.098
 4770.8820       4.674       4.583       4.654       4.758       4.829       8.041       0.154     167.465      80.140     167.465     195.824       6.827       0.351       2.749       4.805       0.188       0.434       2.090
 4770.7296       4.674       4.582       4.656       4.758       4.829       8.041       0.154     167.465      79.969     167.465     195.824       6.827       0.352       2.749       4.805       0.187       0.434       2.094
 4770.5772       4.672       4.579       4.654       4.759       4.830       8.041       0.154     167.465      79.789     167.465     195.824       6.827       0.353       2.749       4.805       0.186       0.434       2.099
 4770.4248       4.670       4.578       4.653       4.760       4.831       8.041       0.154     167.465      79.789     167.465     195.824       6.827       0.353       2.749       4.805       0.186       0.434       2.099
