~VERSION INFORMATION
VERS.           2.0  :CWLS Log ASCII Standard - VERSION 2.0
WRAP.           NO   :One Line per depth step
CREA. 20000721 15.47 :LAS Creation date <yyyymmdd hh.mm>
#--------------------------------------------------
~WELL INFORMATION
#MNEM.UNIT      DATA             DESCRIPTION
#---- ------ --------------   -----------------------------
STRT .M      4775.7588      :START DEPTH
STOP .M      3909.0600      :STOP DEPTH
STEP .M        -0.1524      :STEP
NULL .          -999.25     :NULL VALUE
COMP .        INPEX BROWSE, LTD.                       :COMPANY
WELL .        GORGONICHTHYS-1                          :WELL
FLD  .        EXPLORATION                              :FIELD
LOC  .        Permit WA-285-P                          :LOCATION
CNTY .        SEDCO-703                                :COUNTY
STAT .        WA                                       :STATE
CTRY .        AUSTRALIA                                :COUNTRY
SRVC .        Schlumberger                             :SERVICE COMPANY
API  .                                                 :API NUMBER
DATE .        12:43:45  Friday, July 21, 2000          :LOG DATE
UWI  .                                                 :UNIQUE WELL ID
#--------------------------------------------------
~PARAMETER INFORMATION
#MNEM.UNIT    VALUE                      DESCRIPTION
#---- -----   --------------------       ------------------------
PDAT .        L.A.T.                     :Permanent Datum
EPD  .M           0.000000               :Elevation of Permanent Datum above Mean Sea Level
LMF  .          Drill Floor              :Logging Measured From (Name of Logging Elevation Reference)
APD  .M          26.400000               :Elevation of Depth Reference (LMF) above Permanent Datum
#--------------------------------------------------
~CURVE INFORMATION
#MNEM.UNIT   API CODE DESCRIPTION
#---- -----  -------- -----------------------
DEPTH.M               :DEPTH (BOREHOLE)
AT10 .OHMM            :Array Induction Two Foot Resistivity A10
AT20 .OHMM            :Array Induction Two Foot Resistivity A20
AT30 .OHMM            :Array Induction Two Foot Resistivity A30
AT60 .OHMM            :Array Induction Two Foot Resistivity A60
AT90 .OHMM            :Array Induction Two Foot Resistivity A90
CALI .IN              :Caliper
DRHO .G/C3            :Bulk Density Correction
DT2  .US/F            :Delta-T Shear - Upper Dipole
DTCO .US/F            :Delta-T Compressional
DTSM .US/F            :Delta-T Shear
GR   .GAPI            :Gamma Ray
PEF  .                :Photoelectric Factor
PR   .                :Poisson Shear/Compressional Ratio
RHOB .G/C3            :Bulk Density
RT   .OHMM            :True Resistivity
SPHI .V/V             :Sonic Porosity
TNPH .V/V             :Thermal Neutron Porosity
VPVS .                :Compressional to Shear Velosity Ratio
#--------------------------------------------------
# 
#    DEPTH       AT10        AT20        AT30        AT60        AT90        CALI        DRHO         DT2        DTCO        DTSM         GR          PEF         PR         RHOB         RT         SPHI        TNPH        VPVS     
#                                                                                                                                                                                                                                     
~A  
# ...
 3969.2580      80.984     103.066     122.410     170.474     166.260      10.442       0.089      97.551      64.030      97.551      32.242       7.185       0.122       2.443     125.188       0.078       0.021       1.524
 3969.1056      65.881      88.314     110.194     161.039     153.357      10.606       0.082      97.065      63.531      97.065      34.263       7.003       0.125       2.441     135.003       0.074       0.023       1.528
 3968.9532      61.733      81.184     101.613     155.249     139.630      10.431       0.088      98.860      63.131      98.860      38.501       6.630       0.156       2.454     143.809       0.071       0.035       1.566
 3968.8008      67.415      85.870     113.622     163.315     146.765      10.210       0.085     101.750      62.917     101.750      39.664       6.266       0.190       2.441     149.062       0.069       0.045       1.617
 3968.6484      73.423      92.686     117.883     170.319     153.392      10.193       0.095     102.502      63.672     102.502      41.267       6.661       0.186       2.411     149.116       0.075       0.051       1.610
 3968.4960      78.635      98.581     122.188     171.743     153.930      10.646       0.117     102.902      63.147     102.902      39.973       7.019       0.198       2.374     144.209       0.071       0.048       1.630
 3968.3436      89.397     107.758     130.780     171.691     154.449      11.127       0.118      99.988      61.830      99.988      38.565       7.302       0.190       2.320     134.559       0.059       0.044       1.617
 3968.1912     101.664     118.626     138.114     166.547     150.991      10.894       0.145      96.948      59.983      96.948      34.674       7.079       0.190       2.323     119.931       0.042       0.041       1.616
 3968.0388     100.090     119.302     133.227     144.419     132.164      10.881       0.156      95.087      60.959      95.087      33.778       7.445       0.151       2.306     102.303       0.051       0.046       1.560
 3967.8864      82.658     105.730     113.315     113.043     103.305      10.518       0.152      89.497      63.077      89.497      33.767       7.511       0.006       2.249      86.035       0.070       0.044       1.419
 3967.7340      65.307      86.855      92.323     100.581      95.159      10.295       0.129      91.607      66.497      91.607      33.010       7.816    -999.250       2.183      73.920       0.099       0.044    -999.250
 3967.5816      50.506      61.331      67.913      75.612      73.188      10.236       0.123      92.746      63.833      92.746      35.683       8.458       0.050       2.200      66.187       0.077       0.039       1.453
 3967.4292      36.415      39.435      45.613      52.739      51.906      10.436       0.131      97.823      66.473      97.823      40.781       7.717       0.071       2.305      61.834       0.098       0.040       1.472
 3967.2768      26.960      28.240      33.891      37.563      37.145      10.331       0.146     107.755      67.325     107.755      50.588       6.666       0.180       2.430      59.712       0.105       0.056       1.601
 3967.1244      23.157      24.754      28.926      30.991      30.796      10.037       0.135     109.966      67.982     109.966      61.431       5.526       0.191       2.456      59.056       0.110       0.097       1.618
 3966.9720      24.662      27.507      31.420      33.886      33.810       9.903       0.143     109.954      66.032     109.954      70.577       5.346       0.218       2.454      59.568       0.095       0.105       1.665
 3966.8196      32.629      38.503      43.246      47.416      47.724       9.862       0.155     109.811      67.959     109.811      66.497       5.953       0.190       2.391      61.402       0.110       0.075       1.616
 3966.6672      47.402      59.614      67.121      72.667      73.567       9.755       0.120     108.646      66.345     108.646      53.365       7.190       0.203       2.254      65.116       0.097       0.047       1.638
 3966.5148      63.742      82.288      90.448      94.928      95.700       9.745       0.108     104.789      62.693     104.789      37.204       8.306       0.221       2.219      71.590       0.067       0.037       1.671
 3966.3624      77.032      97.234     107.887     111.664     112.880      10.238       0.103      94.780      60.240      94.780      32.617       8.598       0.161       2.278      81.606       0.044       0.031       1.573
 3966.2100      80.095     101.904     111.840     117.266     122.722      10.014       0.119      92.891      59.638      92.891      30.057       7.726       0.149       2.428      95.262       0.038       0.032       1.558
 3966.0576      77.010      99.143     105.779     114.774     118.340       9.891       0.130      90.253      60.403      90.253      30.696       7.012       0.094       2.495     111.144       0.046       0.032       1.494
 3965.9052      83.409     108.534     115.967     123.557     126.893       9.777       0.151      83.375      60.319      83.375      31.208       6.078       0.094       2.505     126.220       0.045       0.027       1.494
 3965.7528     109.573     135.810     128.177     139.914     142.410       9.777       0.181      88.416      62.163      88.416      33.383       5.728       0.011       2.500     137.380       0.062       0.022       1.422
 3965.6004     142.176     156.025     152.307     169.933     173.557       9.797       0.222      96.130      62.011      96.130      35.569       5.328       0.144       2.517     141.374       0.061       0.021       1.550
 3965.4480     161.766     165.776     159.034     174.233     180.128       9.861       0.220      97.972      62.297      97.972      37.605       5.462       0.161       2.486     134.034       0.063       0.020       1.573
 3965.2956     179.464     184.976     166.142     175.231     178.357      10.128       0.205     101.035      62.946     101.035      37.337       5.423       0.183       2.476     116.258       0.069       0.023       1.605
 3965.1432     171.607     200.490     156.346     191.500     188.099      10.046       0.214     105.655      63.961     105.655      37.313       5.313       0.211       2.504      94.273       0.078       0.028       1.652
 3964.9908     115.484     165.850     124.641     129.779     138.441       9.902       0.177     105.167      63.560     105.167      33.636       4.698       0.212       2.484      74.386       0.074       0.031       1.655
 3964.8384      60.593      94.051      85.598      79.070      81.344       9.972       0.139     105.472      64.391     105.472      33.241       4.779       0.203       2.423      59.313       0.081       0.030       1.638
 3964.6860      35.463      42.557      46.835      48.729      49.364      10.315       0.157     108.354      66.337     108.354      34.929       5.306       0.200       2.415      49.074       0.097       0.029       1.633
 3964.5336      23.333      24.829      33.511      34.237      34.557      10.402       0.146     117.675      66.323     117.675      44.350       6.902       0.267       2.392      42.533       0.097       0.051       1.774
 3964.3812      19.625      21.192      26.546      28.261      28.711      10.216       0.148     121.235      65.189     121.235      64.851       7.332       0.297       2.393      38.370       0.088       0.088       1.860
 3964.2288      20.649      23.755      25.105      27.217      28.072       9.940       0.181     135.390      64.454     135.390      71.775       7.635       0.353       2.426      35.582       0.082       0.119       2.101
 3964.0764      24.502      28.791      27.054      29.627      30.882      10.289       0.180     124.515      64.615     124.515      76.398       7.821       0.316       2.361      33.698       0.083       0.104       1.927
 3963.9240      28.214      32.199      30.436      31.190      32.435      11.012       0.144     113.268      64.534     113.268      70.842       8.391       0.260       2.243      32.631       0.083       0.093       1.755
