~VERSION INFORMATION
VERS.           2.0  :CWLS Log ASCII Standard - VERSION 2.0
WRAP.           NO   :One Line per depth step
CREA. 20000721 15.47 :LAS Creation date <yyyymmdd hh.mm>
#--------------------------------------------------
~WELL INFORMATION
#MNEM.UNIT      DATA             DESCRIPTION
#---- ------ --------------   -----------------------------
STRT .M      4775.7588      :START DEPTH
STOP .M      3909.0600      :STOP DEPTH
STEP .M        -0.1524      :STEP
NULL .          -999.25     :NULL VALUE
COMP .        INPEX BROWSE, LTD.                       :COMPANY
WELL .        GORGONICHTHYS-1                          :WELL
FLD  .        EXPLORATION                              :FIELD
LOC  .        Permit WA-285-P                          :LOCATION
CNTY .        SEDCO-703                                :COUNTY
STAT .        WA                                       :STATE
CTRY .        AUSTRALIA                                :COUNTRY
SRVC .        Schlumberger                             :SERVICE COMPANY
API  .                                                 :API NUMBER
DATE .        12:43:45  Friday, July 21, 2000          :LOG DATE
UWI  .                                                 :UNIQUE WELL ID
#--------------------------------------------------
~PARAMETER INFORMATION
#MNEM.UNIT    VALUE                      DESCRIPTION
#---- -----   --------------------       ------------------------
PDAT .        L.A.T.                     :Permanent Datum
EPD  .M           0.000000               :Elevation of Permanent Datum above Mean Sea Level
LMF  .          Drill Floor              :Logging Measured From (Name of Logging Elevation Reference)
APD  .M          26.400000               :Elevation of Depth Reference (LMF) above Permanent Datum
#--------------------------------------------------
~CURVE INFORMATION
#MNEM.UNIT   API CODE DESCRIPTION
#---- -----  -------- -----------------------
DEPTH.M               :DEPTH (BOREHOLE)
AT10 .OHMM            :Array Induction Two Foot Resistivity A10
AT20 .OHMM            :Array Induction Two Foot Resistivity A20
AT30 .OHMM            :Array Induction Two Foot Resistivity A30
AT60 .OHMM            :Array Induction Two Foot Resistivity A60
AT90 .OHMM            :Array Induction Two Foot Resistivity A90
CALI .IN              :Caliper
DRHO .G/C3            :Bulk Density Correction
DT2  .US/F            :Delta-T Shear - Upper Dipole
DTCO .US/F            :Delta-T Compressional
DTSM .US/F            :Delta-T Shear
GR   .GAPI            :Gamma Ray
PEF  .                :Photoelectric Factor
PR   .                :Poisson Shear/Compressional Ratio
RHOB .G/C3            :Bulk Density
RT   .OHMM            :True Resistivity
SPHI .V/V             :Sonic Porosity
TNPH .V/V             :Thermal Neutron Porosity
VPVS .                :Compressional to Shear Velosity Ratio
#--------------------------------------------------
# 
#    DEPTH       AT10        AT20        AT30        AT60        AT90        CALI        DRHO         DT2        DTCO        DTSM         GR          PEF         PR         RHOB         RT         SPHI        TNPH        VPVS     
#                                                                                                                                                                                                                                     
~A  
# ...
 4490.4660    1950.000    1950.000    1946.508    1950.000    1945.310       8.321      -0.011      99.002      64.545      99.002      13.614       1.895       0.130       2.397    1950.000       0.083       0.011       1.534
 4490.3136    1950.000    1950.000    1949.340    1950.000    1950.000       8.333      -0.009     100.178      64.702     100.178      11.945       1.919       0.142       2.392    1950.000       0.084       0.010       1.548
 4490.1612    1950.000    1950.000    1950.000    1950.000    1950.000       8.322      -0.004     101.463      65.793     101.463      12.209       1.986       0.137       2.400    1950.000       0.093       0.011       1.542
 4490.0088    1950.000    1950.000    1950.000    1950.000    1950.000       8.418      -0.002     102.458      65.614     102.458      12.329       2.039       0.152       2.420    1950.000       0.092       0.012       1.562
 4489.8564    1950.000    1950.000    1950.000    1950.000    1950.000       8.485      -0.000     102.722      65.403     102.722      14.507       2.064       0.159       2.460    1950.000       0.090       0.012       1.571
 4489.7040    1950.000    1950.000    1950.000    1950.000    1950.000       8.493       0.001     102.957      68.032     102.957      17.012       2.104       0.112       2.494    1950.000       0.111       0.011       1.513
 4489.5516    1950.000    1950.000    1950.000    1950.000    1943.163       8.493       0.003     103.031      66.218     103.031      18.430       2.157       0.148       2.497    1950.000       0.096       0.012       1.556
 4489.3992    1950.000    1950.000    1950.000    1950.000    1906.741       8.495      -0.004     104.023      67.522     104.023      18.044       2.196       0.136       2.449    1950.000       0.107       0.011       1.541
 4489.2468    1950.000    1950.000    1950.000    1950.000    1869.017       8.491      -0.010     104.679      65.040     104.679      17.080       2.192       0.186       2.400    1950.000       0.087       0.011       1.609
 4489.0944    1950.000    1950.000    1950.000    1950.000    1844.176       8.488      -0.009     105.269      66.432     105.269      15.281       2.103       0.169       2.362    1950.000       0.098       0.012       1.585
 4488.9420    1950.000    1950.000    1950.000    1950.000    1842.071       8.500      -0.010     106.489      67.836     106.489      13.740       2.044       0.159       2.347    1950.000       0.109       0.013       1.570
 4488.7896    1950.000    1950.000    1950.000    1950.000    1863.552       8.486      -0.011     106.694      66.291     106.694      13.099       2.010       0.186       2.339    1950.000       0.097       0.011       1.609
 4488.6372    1950.000    1950.000    1950.000    1950.000    1899.993       8.493      -0.010     107.444      67.981     107.444      13.484       2.040       0.166       2.344    1950.000       0.110       0.009       1.580
 4488.4848    1950.000    1950.000    1950.000    1950.000    1938.263       8.495      -0.010     107.826      69.289     107.826      13.769       2.113       0.148       2.341    1950.000       0.120       0.007       1.556
 4488.3324    1950.000    1950.000    1950.000    1950.000    1950.000       8.482      -0.011     107.458      67.264     107.458      14.160       2.130       0.178       2.334    1950.000       0.105       0.005       1.598
 4488.1800    1950.000    1950.000    1950.000    1950.000    1950.000       8.502      -0.012     106.628      68.659     106.628      14.027       2.211       0.146       2.334    1950.000       0.115       0.014       1.553
 4488.0276    1950.000    1950.000    1950.000    1950.000    1950.000       8.495      -0.012     104.661      67.721     104.661      14.027       2.242       0.140       2.347    1950.000       0.108       0.025       1.545
 4487.8752    1950.000    1950.000    1950.000    1950.000    1950.000       8.488      -0.008     104.198      68.061     104.198      14.920       2.211       0.128       2.384    1950.000       0.111       0.034       1.531
 4487.7228    1950.000    1950.000    1950.000    1950.000    1950.000       8.471      -0.008     104.122      68.087     104.122      15.305       2.234       0.126       2.406    1950.000       0.111       0.028       1.529
 4487.5704    1950.000    1950.000    1950.000    1950.000    1943.773       8.459      -0.006     105.088      68.500     105.088      15.919       2.179       0.131       2.405    1950.000       0.114       0.019       1.534
 4487.4180    1950.000    1950.000    1940.958    1950.000    1879.442       8.418      -0.007     106.378      69.522     106.378      13.861       2.161       0.127       2.380    1871.319       0.122       0.017       1.530
 4487.2656    1950.000    1950.000    1904.382    1950.000    1784.198       8.412      -0.008     106.408      69.384     106.408      13.215       2.077       0.130       2.366    1761.056       0.121       0.017       1.534
 4487.1132    1950.000    1950.000    1862.042    1950.000    1677.951       8.438      -0.008     106.323      67.892     106.323      11.928       2.106       0.156       2.355    1698.437       0.109       0.019       1.566
 4486.9608    1935.905    1932.645    1818.163    1950.000    1601.979       8.436      -0.005     107.123      69.159     107.123      11.667       2.132       0.143       2.350    1682.923       0.119       0.020       1.549
 4486.8084    1950.000    1950.000    1822.693    1950.000    1568.144       8.423      -0.009     107.480      67.222     107.480      11.546       2.222       0.179       2.336    1687.897       0.104       0.024       1.599
 4486.6560    1950.000    1950.000    1835.087    1950.000    1595.209       8.425      -0.012     106.554      65.272     106.554      12.320       2.223       0.200       2.328    1702.167       0.089       0.026       1.632
 4486.5036    1950.000    1950.000    1851.625    1950.000    1668.386       8.430      -0.011     105.337      61.038     105.337      12.965       2.294       0.247       2.355    1747.631       0.052       0.026       1.726
 4486.3512    1950.000    1950.000    1862.789    1950.000    1767.017       8.472      -0.010     104.038      63.049     104.038      14.873       2.305       0.210       2.393    1830.584       0.070       0.027       1.650
 4486.1988    1950.000    1950.000    1864.605    1950.000    1862.513       8.511      -0.010     103.209      63.633     103.209      14.869       2.352       0.193       2.429    1931.526       0.075       0.027       1.622
 4486.0464    1950.000    1950.000    1863.063    1950.000    1932.699       8.507      -0.014     102.093      63.416     102.093      15.644       2.299       0.186       2.442    1950.000       0.073       0.024       1.610
 4485.8940    1950.000    1950.000    1868.976    1950.000    1950.000       8.486      -0.012     100.933      63.845     100.933      12.697       2.241       0.167       2.467    1950.000       0.077       0.024       1.581
 4485.7416    1950.000    1950.000    1888.573    1950.000    1950.000       8.523      -0.014     101.171      66.507     101.171      13.392       2.242       0.120       2.480    1950.000       0.099       0.031       1.521
 4485.5892    1950.000    1950.000    1918.188    1950.000    1950.000       8.510      -0.016     102.537      66.884     102.537      13.002       2.201       0.130       2.463    1950.000       0.102       0.046       1.533
 4485.4368    1950.000    1950.000    1947.555    1950.000    1950.000       8.499      -0.016     103.678      67.612     103.678      16.220       2.097       0.130       2.430    1950.000       0.107       0.058       1.533
 4485.2844    1950.000    1950.000    1950.000    1950.000    1950.000       8.517      -0.015     104.500      66.677     104.500      15.643       2.022       0.157       2.411    1950.000       0.100       0.063       1.567
 4485.1320    1950.000    1950.000    1950.000    1950.000    1950.000       8.512      -0.015     104.846      65.863     104.846      15.144       2.072       0.174       2.395    1950.000       0.094       0.063       1.592
