~VERSION INFORMATION
VERS.           2.0  :CWLS Log ASCII Standard - VERSION 2.0
WRAP.           NO   :One Line per depth step
CREA. 20000721 15.47 :LAS Creation date <yyyymmdd hh.mm>
#--------------------------------------------------
~WELL INFORMATION
#MNEM.UNIT      DATA             DESCRIPTION
#---- ------ --------------   -----------------------------
STRT .M      4775.7588      :START DEPTH
STOP .M      3909.0600      :STOP DEPTH
STEP .M        -0.1524      :STEP
NULL .          -999.25     :NULL VALUE
COMP .        INPEX BROWSE, LTD.                       :COMPANY
WELL .        GORGONICHTHYS-1                          :WELL
FLD  .        EXPLORATION                              :FIELD
LOC  .        Permit WA-285-P                          :LOCATION
CNTY .        SEDCO-703                                :COUNTY
STAT .        WA                                       :STATE
CTRY .        AUSTRALIA                                :COUNTRY
SRVC .        Schlumberger                             :SERVICE COMPANY
API  .                                                 :API NUMBER
DATE .        12:43:45  Friday, July 21, 2000          :LOG DATE
UWI  .                                                 :UNIQUE WELL ID
#--------------------------------------------------
~PARAMETER INFORMATION
#MNEM.UNIT    VALUE                      DESCRIPTION
#---- -----   --------------------       ------------------------
PDAT .        L.A.T.                     :Permanent Datum
EPD  .M           0.000000               :Elevation of Permanent Datum above Mean Sea Level
LMF  .          Drill Floor              :Logging Measured From (Name of Logging Elevation Reference)
APD  .M          26.400000               :Elevation of Depth Reference (LMF) above Permanent Datum
#--------------------------------------------------
~CURVE INFORMATION
#MNEM.UNIT   API CODE DESCRIPTION
#---- -----  -------- -----------------------
DEPTH.M               :DEPTH (BOREHOLE)
AT10 .OHMM            :Array Induction Two Foot Resistivity A10
AT20 .OHMM            :Array Induction Two Foot Resistivity A20
AT30 .OHMM            :Array Induction Two Foot Resistivity A30
AT60 .OHMM            :Array Induction Two Foot Resistivity A60
AT90 .OHMM            :Array Induction Two Foot Resistivity A90
CALI .IN              :Caliper
DRHO .G/C3            :Bulk Density Correction
DT2  .US/F            :Delta-T Shear - Upper Dipole
DTCO .US/F            :Delta-T Compressional
DTSM .US/F            :Delta-T Shear
GR   .GAPI            :Gamma Ray
PEF  .                :Photoelectric Factor
PR   .                :Poisson Shear/Compressional Ratio
RHOB .G/C3            :Bulk Density
RT   .OHMM            :True Resistivity
SPHI .V/V             :Sonic Porosity
TNPH .V/V             :Thermal Neutron Porosity
VPVS .                :Compressional to Shear Velosity Ratio
#--------------------------------------------------
# 
#    DEPTH       AT10        AT20        AT30        AT60        AT90        CALI        DRHO         DT2        DTCO        DTSM         GR          PEF         PR         RHOB         RT         SPHI        TNPH        VPVS     
#                                                                                                                                                                                                                                     
~A  
# ...
 4084.4724     149.406     142.786     128.521     125.423     118.027       8.384       0.001     108.226      65.509     108.226      25.757       2.128       0.211       2.440      71.271       0.091       0.070       1.652
 4084.3200     135.567     130.025     116.734     117.603     112.171       8.404      -0.001     109.284      65.802     109.284      25.629       2.203       0.216       2.440      61.311       0.093       0.066       1.661
 4084.1676     117.613     112.256     102.491     100.932      95.937       8.411      -0.001     112.652      65.727     112.652      29.980       2.192       0.242       2.436      54.357       0.092       0.065       1.714
 4084.0152      69.035      67.703      61.598      62.135      60.148       8.410       0.012     115.824      66.787     115.824      44.475       2.147       0.251       2.446      49.788       0.101       0.069       1.734
 4083.8628      34.727      34.149      34.510      34.096      33.162       8.462       0.042     117.308      67.737     117.308      65.167       2.433       0.250       2.457      46.688       0.108       0.077       1.732
 4083.7104      24.012      23.747      24.618      24.777      23.892       8.885       0.036     115.786      69.552     115.786      76.942       3.277       0.218       2.431      44.518       0.122       0.091       1.665
 4083.5580      26.309      26.439      25.435      25.630      24.851       8.502       0.024     112.832      68.400     112.832      64.490       3.850       0.209       2.391      43.152       0.113       0.130       1.650
 4083.4056      45.268      44.375      38.120      38.129      36.601       8.377       0.032     106.884      68.866     106.884      42.904       3.337       0.145       2.416      42.742       0.117       0.119       1.552
 4083.2532      97.375      84.458      64.277      61.284      57.261       8.373       0.012     102.566      68.622     102.566      28.702       2.710       0.095       2.426      43.553       0.115       0.076       1.495
 4083.1008     141.706     108.707      85.654      79.443      72.334       8.350      -0.004      97.813      67.170      97.813      27.462       2.451       0.054       2.460      45.821       0.104       0.051       1.456
 4082.9484     118.647      94.638      79.503      75.076      68.450       8.389      -0.003      97.785      65.806      97.785      30.272       2.368       0.086       2.477      49.450       0.093       0.050       1.486
 4082.7960      91.780      78.543      71.346      67.100      61.764       8.470      -0.001      97.306      68.292      97.306      31.398       2.238       0.015       2.491      53.742       0.112       0.054       1.425
 4082.6436      78.297      69.569      65.060      62.183      57.598       8.383      -0.003      98.506      63.536      98.506      31.644       2.202       0.144       2.491      57.504       0.074       0.060       1.550
 4082.4912      72.709      65.596      61.481      60.071      55.773       8.376      -0.007     100.126      63.743     100.126      30.750       2.236       0.159       2.489      59.899       0.076       0.067       1.571
 4082.3388      71.148      64.379      60.583      58.540      55.037       8.393      -0.012     102.938      65.314     102.938      27.587       2.241       0.163       2.469      61.176       0.089       0.070       1.576
 4082.1864      72.825      65.914      62.408      60.413      56.868       8.383      -0.016     105.711      66.145     105.711      27.863       2.211       0.178       2.457      61.977       0.096       0.059       1.598
 4082.0340      77.746      70.499      66.980      64.271      60.758       8.380      -0.020     107.163      65.306     107.163      29.394       2.227       0.205       2.433      62.631       0.089       0.049       1.641
 4081.8816      83.219      76.185      71.823      68.766      64.319       8.387      -0.023     108.043      68.365     108.043      31.942       2.273       0.166       2.440      63.153       0.113       0.049       1.580
 4081.7292      86.236      81.023      76.202      72.687      67.400       8.370      -0.022     108.873      66.487     108.873      30.015       2.390       0.203       2.450      63.516       0.099       0.055       1.638
 4081.5768      86.802      83.559      78.649      75.547      69.102       8.369      -0.017     109.358      67.061     109.358      25.637       2.298       0.199       2.463      63.695       0.103       0.057       1.631
 4081.4244      85.914      83.688      78.412      75.629      68.446       8.403      -0.014     109.354      67.134     109.354      22.699       2.162       0.198       2.461      63.704       0.104       0.053       1.629
 4081.2720      85.236      83.368      78.881      76.354      68.294       8.383      -0.012     109.430      68.147     109.430      23.328       2.131       0.183       2.451      63.592       0.111       0.052       1.606
 4081.1196      87.350      85.147      80.421      79.010      68.978       8.380      -0.010     110.016      67.633     110.016      25.371       2.177       0.196       2.453      63.349       0.108       0.052       1.627
 4080.9672      92.500      90.105      84.693      85.069      72.946       8.380      -0.007     110.011      67.035     110.011      26.648       2.273       0.205       2.452      62.689       0.103       0.053       1.641
 4080.8148      96.507      95.708      89.774      93.914      78.094       8.373      -0.005     110.818      67.974     110.818      24.727       2.201       0.198       2.451      60.948       0.110       0.051       1.630
 4080.6624      98.381     102.202      96.759     104.327      84.733       8.387      -0.004     110.639      68.459     110.639      23.779       2.239       0.190       2.442      57.383       0.114       0.048       1.616
 4080.5100     106.373     116.054     106.422     123.460      96.754       8.380      -0.002     110.812      69.191     110.812      22.374       2.249       0.180       2.438      51.718       0.119       0.045       1.602
 4080.3576     129.238     141.976     122.308     140.538     115.171       8.383       0.000     110.211      68.710     110.211      23.139       2.314       0.182       2.431      44.128       0.116       0.053       1.604
 4080.2052     148.335     150.363     125.263     119.498     107.361       8.376       0.001     110.027      67.051     110.027      21.908       2.259       0.205       2.419      35.553       0.103       0.067       1.641
 4080.0528     101.284      93.182      82.557      66.898      75.471       8.383       0.001     112.581      66.722     112.581      25.590       2.240       0.229       2.408      27.636       0.100       0.086       1.687
 4079.9004      48.072      43.113      39.002      35.593      33.775       8.380       0.002     117.540      66.817     117.540      36.590       2.173       0.261       2.376      21.578       0.101       0.103       1.759
 4079.7480      22.526      21.508      20.391      20.186      19.087       8.841       0.026     120.050      66.194     120.050      52.712       2.413       0.282       2.339      17.440       0.096       0.126       1.814
 4079.5956      14.358      14.209      13.760      13.444      13.008      10.786       0.068     123.675      71.813     123.675      72.884       3.338       0.246       2.299      14.684       0.138       0.144       1.722
 4079.4432      11.614      11.701      11.402      11.029      10.770      10.602       0.092     132.054      72.291     132.054      90.948       5.156       0.286       2.250      12.803       0.141       0.151       1.827
 4079.2908      10.709      10.922      10.668      10.126       9.951      10.205       0.136     129.620      71.964     129.620     109.446       6.969       0.277       2.293      11.489       0.139       0.153       1.801
 4079.1384      10.429      10.580      10.333       9.735       9.628       9.519       0.137     127.568      71.437     127.568     126.279       7.059       0.272       2.318      10.577       0.135       0.164       1.786
