~VERSION INFORMATION
VERS.           2.0  :CWLS Log ASCII Standard - VERSION 2.0
WRAP.           NO   :One Line per depth step
CREA. 20000721 15.47 :LAS Creation date <yyyymmdd hh.mm>
#--------------------------------------------------
~WELL INFORMATION
#MNEM.UNIT      DATA             DESCRIPTION
#---- ------ --------------   -----------------------------
STRT .M      4775.7588      :START DEPTH
STOP .M      3909.0600      :STOP DEPTH
STEP .M        -0.1524      :STEP
NULL .          -999.25     :NULL VALUE
COMP .        INPEX BROWSE, LTD.                       :COMPANY
WELL .        GORGONICHTHYS-1                          :WELL
FLD  .        EXPLORATION                              :FIELD
LOC  .        Permit WA-285-P                          :LOCATION
CNTY .        SEDCO-703                                :COUNTY
STAT .        WA                                       :STATE
CTRY .        AUSTRALIA                                :COUNTRY
SRVC .        Schlumberger                             :SERVICE COMPANY
API  .                                                 :API NUMBER
DATE .        12:43:45  Friday, July 21, 2000          :LOG DATE
UWI  .                                                 :UNIQUE WELL ID
#--------------------------------------------------
~PARAMETER INFORMATION
#MNEM.UNIT    VALUE                      DESCRIPTION
#---- -----   --------------------       ------------------------
PDAT .        L.A.T.                     :Permanent Datum
EPD  .M           0.000000               :Elevation of Permanent Datum above Mean Sea Level
LMF  .          Drill Floor              :Logging Measured From (Name of Logging Elevation Reference)
APD  .M          26.400000               :Elevation of Depth Reference (LMF) above Permanent Datum
#--------------------------------------------------
~CURVE INFORMATION
#MNEM.UNIT   API CODE DESCRIPTION
#---- -----  -------- -----------------------
DEPTH.M               :DEPTH (BOREHOLE)
AT10 .OHMM            :Array Induction Two Foot Resistivity A10
AT20 .OHMM            :Array Induction Two Foot Resistivity A20
AT30 .OHMM            :Array Induction Two Foot Resistivity A30
AT60 .OHMM            :Array Induction Two Foot Resistivity A60
AT90 .OHMM            :Array Induction Two Foot Resistivity A90
CALI .IN              :Caliper
DRHO .G/C3            :Bulk Density Correction
DT2  .US/F            :Delta-T Shear - Upper Dipole
DTCO .US/F            :Delta-T Compressional
DTSM .US/F            :Delta-T Shear
GR   .GAPI            :Gamma Ray
PEF  .                :Photoelectric Factor
PR   .                :Poisson Shear/Compressional Ratio
RHOB .G/C3            :Bulk Density
RT   .OHMM            :True Resistivity
SPHI .V/V             :Sonic Porosity
TNPH .V/V             :Thermal Neutron Porosity
VPVS .                :Compressional to Shear Velosity Ratio
#--------------------------------------------------
# 
#    DEPTH       AT10        AT20        AT30        AT60        AT90        CALI        DRHO         DT2        DTCO        DTSM         GR          PEF         PR         RHOB         RT         SPHI        TNPH        VPVS     
#                                                                                                                                                                                                                                     
~A  
# ...
 4144.8228       4.771       5.429       5.706       6.398       7.688       8.677       0.012     144.019      72.886     144.019     149.755       4.722       0.328       2.635       6.797       0.145       0.220       1.976
 4144.6704       4.937       5.373       6.318       7.215       8.885       8.719       0.013     139.665      75.371     139.665     148.626       4.066       0.295       2.620       7.301       0.161       0.211       1.853
 4144.5180       5.332       5.514       7.604       8.430      10.805       8.722       0.025     145.099      75.503     145.099     147.858       4.206       0.314       2.651       7.904       0.161       0.199       1.922
 4144.3656       6.189       6.313       8.878       9.437      12.474       8.779       0.013     144.043      74.240     144.043     148.879       4.093       0.319       2.673       8.578       0.154       0.183       1.940
 4144.2132       8.076       8.576      11.521      10.751      14.667       8.735       0.012     141.989      77.223     141.989     138.969       4.098       0.290       2.673       9.307       0.172       0.166       1.839
 4144.0608      11.236      12.901      17.525       9.700      12.824       8.700       0.017     141.178      78.629     141.178     135.051       3.843       0.275       2.676      10.094       0.180       0.173       1.796
 4143.9084      13.037      15.886      17.367      11.256      15.358       8.634       0.024     143.071      76.627     143.071     130.663       3.943       0.299       2.687      10.920       0.168       0.183       1.867
 4143.7560      11.315      13.593      14.472      10.655      14.310       8.588       0.013     144.917      76.662     144.917     137.609       3.875       0.306       2.681      11.690       0.168       0.198       1.890
 4143.6036       9.320      10.863      12.152      10.213      13.373       8.582       0.013     150.950      75.289     150.950     145.361       3.882       0.334       2.691      12.241       0.160       0.201       2.005
 4143.4512       8.397       9.690      10.666       9.323      11.781       8.584       0.064     153.068      71.303     153.068     147.962       3.955       0.361       2.703      12.432       0.134       0.211       2.147
 4143.2988       7.884       9.038       9.282       8.591      10.450       8.597       0.069     157.342      69.238     157.342     145.949       3.824       0.380       2.661      12.258       0.119       0.224       2.272
 4143.1464       7.308       8.251       8.498       7.911       9.342       8.899       0.096     155.144      67.582     155.144     143.346       4.739       0.383       2.566      11.861       0.107       0.249       2.296
 4142.9940       7.228       8.064       8.295       7.782       8.789       8.723       0.149     146.187      65.346     146.187     128.912       4.593       0.375       2.559      11.424       0.089       0.225       2.237
 4142.8416       8.462       9.436       9.384       8.934      10.004       8.894       0.166     142.624      65.890     142.624     105.638       6.244       0.364       2.455      11.068       0.094       0.144       2.165
 4142.6892      10.546      12.258      12.551       9.175      10.010       9.406       0.137     132.489      67.239     132.489      93.261       6.157       0.327       2.397      10.816       0.104       0.116       1.970
 4142.5368       9.220      11.216      12.439      12.598      12.945       9.043       0.117     136.766      67.343     136.766     108.461       6.699       0.340       2.385      10.639       0.105       0.146       2.031
 4142.3844       6.179       7.353       9.053       9.601      10.156       8.773       0.086     134.891      68.178     134.891     131.475       5.457       0.328       2.478      10.532       0.112       0.227       1.979
 4142.2320       4.780       5.654       6.580      10.767      11.002       8.578       0.061     133.688      72.897     133.688     147.988       4.964       0.288       2.621      10.554       0.145       0.262       1.834
 4142.0796       4.845       5.997       6.607       8.934       9.176       8.589       0.025     135.306      71.883     135.306     144.068       4.663       0.303       2.695      10.802       0.138       0.263       1.882
 4141.9272       6.521       9.134       9.673      13.112      13.422       8.581       0.010     140.582      71.470     140.582     137.095       4.664       0.326       2.705      11.361       0.135       0.226       1.967
 4141.7748       9.744      16.012      16.996      24.110      24.814       8.637       0.010     145.476      69.978     145.476     122.751       4.372       0.349       2.657      12.242       0.125       0.199       2.079
 4141.6224       9.596      15.157      18.766      25.012      25.706       8.672       0.015     145.112      69.628     145.112     121.429       3.835       0.350       2.638      13.441       0.122       0.184       2.084
 4141.4700       6.619       8.782      12.044      14.275      14.512       8.707       0.014     142.739      66.955     142.739     134.586       3.770       0.359       2.641      14.951       0.102       0.202       2.132
 4141.3176       5.279       6.745       9.832      10.614      10.713       8.712       0.013     136.186      66.518     136.186     149.167       4.056       0.343       2.657      16.788       0.099       0.217       2.047
 4141.1652       5.817       8.192      10.156      12.428      12.378       8.708       0.015     133.635      56.321     133.635     143.168       4.276       0.392       2.706      19.016       0.004       0.204       2.373
 4141.0128       9.183      17.253      15.282      19.891      19.336       8.721       0.033     125.507      54.275     125.507     107.531       5.043       0.385       2.739      21.621      -0.020       0.136       2.312
 4140.8604      19.831      51.583      27.048      34.201      31.128       8.701       0.014     116.799      56.954     116.799      63.483       4.610       0.344       2.641      24.507       0.010       0.089       2.051
 4140.7080      40.383     100.280      52.531      45.060      39.858       8.594       0.003     113.710      64.481     113.710      32.065       3.822       0.263       2.523      27.861       0.082       0.071       1.763
 4140.5556      60.296     248.554      62.259      50.740      44.758       8.400       0.002     110.314      63.591     110.314      21.208       2.835       0.251       2.448      31.937       0.075       0.069       1.735
 4140.4032      68.858     137.915      73.766      62.142      53.014       8.363       0.003     110.944      61.143     110.944      17.759       2.498       0.282       2.420      36.997       0.053       0.075       1.814
 4140.2508      80.728     109.747      72.822      70.939      59.956       8.334      -0.006     111.636      63.746     111.636      16.530       2.354       0.258       2.396      42.849       0.076       0.085       1.751
 4140.0984      94.081     104.831      75.196      71.037      60.034       8.352      -0.005     112.174      63.149     112.174      14.870       2.193       0.268       2.390      49.294       0.071       0.092       1.776
 4139.9460      98.804     101.809      79.130      75.364      63.796       8.345      -0.003     105.987      65.485     105.987      15.636       2.163       0.191       2.386      55.680       0.091       0.095       1.618
 4139.7936      94.478      95.611      84.335      80.114      68.046       8.343      -0.001     113.299      65.736     113.299      17.957       2.079       0.246       2.391      60.886       0.093       0.093       1.724
 4139.6412      93.572      96.950      86.337      83.845      71.512       8.329      -0.004     113.443      67.128     113.443      20.001       2.099       0.231       2.381      63.950       0.104       0.092       1.690
 4139.4888      96.479     102.636      91.386      85.469      74.750       8.325      -0.006     112.919      68.259     112.919      20.129       2.087       0.212       2.377      64.905       0.112       0.090       1.654
