~VERSION INFORMATION
VERS.           2.0  :CWLS Log ASCII Standard - VERSION 2.0
WRAP.           NO   :One Line per depth step
CREA. 20000721 15.47 :LAS Creation date <yyyymmdd hh.mm>
#--------------------------------------------------
~WELL INFORMATION
#MNEM.UNIT      DATA             DESCRIPTION
#---- ------ --------------   -----------------------------
STRT .M      4775.7588      :START DEPTH
STOP .M      3909.0600      :STOP DEPTH
STEP .M        -0.1524      :STEP
NULL .          -999.25     :NULL VALUE
COMP .        INPEX BROWSE, LTD.                       :COMPANY
WELL .        GORGONICHTHYS-1                          :WELL
FLD  .        EXPLORATION                              :FIELD
LOC  .        Permit WA-285-P                          :LOCATION
CNTY .        SEDCO-703                                :COUNTY
STAT .        WA                                       :STATE
CTRY .        AUSTRALIA                                :COUNTRY
SRVC .        Schlumberger                             :SERVICE COMPANY
API  .                                                 :API NUMBER
DATE .        12:43:45  Friday, July 21, 2000          :LOG DATE
UWI  .                                                 :UNIQUE WELL ID
#--------------------------------------------------
~PARAMETER INFORMATION
#MNEM.UNIT    VALUE                      DESCRIPTION
#---- -----   --------------------       ------------------------
PDAT .        L.A.T.                     :Permanent Datum
EPD  .M           0.000000               :Elevation of Permanent Datum above Mean Sea Level
LMF  .          Drill Floor              :Logging Measured From (Name of Logging Elevation Reference)
APD  .M          26.400000               :Elevation of Depth Reference (LMF) above Permanent Datum
#--------------------------------------------------
~CURVE INFORMATION
#MNEM.UNIT   API CODE DESCRIPTION
#---- -----  -------- -----------------------
DEPTH.M               :DEPTH (BOREHOLE)
AT10 .OHMM            :Array Induction Two Foot Resistivity A10
AT20 .OHMM            :Array Induction Two Foot Resistivity A20
AT30 .OHMM            :Array Induction Two Foot Resistivity A30
AT60 .OHMM            :Array Induction Two Foot Resistivity A60
AT90 .OHMM            :Array Induction Two Foot Resistivity A90
CALI .IN              :Caliper
DRHO .G/C3            :Bulk Density Correction
DT2  .US/F            :Delta-T Shear - Upper Dipole
DTCO .US/F            :Delta-T Compressional
DTSM .US/F            :Delta-T Shear
GR   .GAPI            :Gamma Ray
PEF  .                :Photoelectric Factor
PR   .                :Poisson Shear/Compressional Ratio
RHOB .G/C3            :Bulk Density
RT   .OHMM            :True Resistivity
SPHI .V/V             :Sonic Porosity
TNPH .V/V             :Thermal Neutron Porosity
VPVS .                :Compressional to Shear Velosity Ratio
#--------------------------------------------------
# 
#    DEPTH       AT10        AT20        AT30        AT60        AT90        CALI        DRHO         DT2        DTCO        DTSM         GR          PEF         PR         RHOB         RT         SPHI        TNPH        VPVS     
#                                                                                                                                                                                                                                     
~A  
# ...
 4314.9012       4.806       4.930       4.665       4.370       4.285       8.529       0.125     157.270      81.048     157.270     157.132       4.364       0.319       2.609       4.214       0.193       0.307       1.940
 4314.7488       4.817       4.932       4.643       4.376       4.298       8.549       0.106     157.217      81.071     157.217     157.333       4.242       0.319       2.614       4.217       0.193       0.311       1.939
 4314.5964       4.806       4.909       4.641       4.368       4.292       8.533       0.083     157.285      81.366     157.285     163.341       4.312       0.317       2.625       4.220       0.195       0.292       1.933
 4314.4440       4.795       4.881       4.630       4.358       4.289       8.523       0.107     159.142      79.395     159.142     155.005       3.901       0.334       2.653       4.224       0.184       0.292       2.004
 4314.2916       4.788       4.850       4.619       4.358       4.295       8.509       0.129     160.510      80.656     160.510     156.775       3.932       0.331       2.646       4.230       0.191       0.288       1.990
 4314.1392       4.836       4.857       4.675       4.417       4.346       8.598       0.157     160.333      80.656     160.333     151.743       4.031       0.331       2.616       4.240       0.191       0.286       1.988
 4313.9868       4.958       4.950       4.725       4.423       4.351       8.596       0.175     159.695      79.245     159.695     155.955       5.348       0.337       2.587       4.256       0.183       0.284       2.015
 4313.8344       4.999       4.997       4.757       4.438       4.369       8.586       0.207     154.297      78.391     154.297     149.549       5.714       0.326       2.611       4.279       0.179       0.259       1.968
 4313.6820       5.043       5.020       4.810       4.490       4.415       8.621       0.225     153.495      78.808     153.495     142.716       5.482       0.321       2.639       4.310       0.181       0.273       1.948
 4313.5296       5.299       5.262       4.954       4.583       4.489       8.608       0.158     154.054      79.681     154.054     136.228       5.247       0.317       2.580       4.347       0.186       0.264       1.933
 4313.3772       5.416       5.428       5.141       4.780       4.673       8.579       0.119     154.064      79.501     154.064     139.840       5.602       0.319       2.555       4.391       0.185       0.291       1.938
 4313.2248       5.201       5.273       5.077       4.757       4.645       8.551       0.086     155.232      80.334     155.232     152.164       5.767       0.317       2.567       4.440       0.189       0.294       1.932
 4313.0724       5.086       5.207       4.988       4.711       4.605       8.531       0.037     156.271      81.608     156.271     152.783       4.750       0.313       2.588       4.494       0.196       0.290       1.915
 4312.9200       5.189       5.356       5.084       4.837       4.707       8.500       0.011     158.030      84.044     158.030     157.370       4.129       0.303       2.596       4.548       0.209       0.295       1.880
 4312.7676       5.273       5.465       5.178       4.938       4.798       8.510       0.038     159.700      84.581     159.700     158.657       3.787       0.305       2.624       4.600       0.211       0.308       1.888
 4312.6152       5.205       5.395       5.126       4.882       4.748       8.501       0.057     162.434      85.941     162.434     169.292       4.072       0.306       2.609       4.648       0.218       0.316       1.890
 4312.4628       5.104       5.290       5.047       4.810       4.676       8.506       0.071     166.497      85.780     166.497     173.356       4.105       0.319       2.586       4.693       0.217       0.324       1.941
 4312.3104       5.103       5.296       5.045       4.807       4.678       8.496       0.097     168.324      86.413     168.324     172.911       4.331       0.321       2.581       4.737       0.220       0.319       1.948
 4312.1580       5.211       5.421       5.166       4.895       4.763       8.524       0.091     169.379      85.707     169.379     168.295       4.396       0.328       2.567       4.782       0.217       0.318       1.976
 4312.0056       5.371       5.594       5.314       5.017       4.880       8.505       0.055     168.696      84.082     168.696     162.545       4.671       0.335       2.548       4.828       0.209       0.316       2.006
 4311.8532       5.547       5.758       5.470       5.143       4.999       8.503       0.058     168.681      83.509     168.681     160.621       4.787       0.338       2.587       4.877       0.206       0.317       2.020
 4311.7008       5.754       5.936       5.631       5.297       5.142       8.496       0.062     167.619      82.732     167.619     154.080       4.434       0.339       2.628       4.929       0.202       0.327       2.026
 4311.5484       5.938       6.084       5.766       5.409       5.249       8.526       0.027     165.368      82.994     165.368     153.471       4.099       0.332       2.593       4.983       0.203       0.332       1.993
 4311.3960       5.998       6.106       5.781       5.424       5.260       8.533       0.015     164.545      83.261     164.545     148.646       3.759       0.328       2.573       5.038       0.205       0.332       1.976
 4311.2436       6.028       6.092       5.796       5.505       5.347       8.503       0.015     167.607      82.467     167.607     156.598       3.809       0.340       2.570       5.092       0.201       0.340       2.032
 4311.0912       6.190       6.201       5.865       5.506       5.330       8.499       0.021     167.658      82.283     167.658     154.332       3.526       0.341       2.587       5.141       0.200       0.327       2.038
 4310.9388       6.532       6.527       6.055       5.714       5.476       8.503       0.031     164.555      82.150     164.555     157.181       3.617       0.334       2.595       5.178       0.199       0.318       2.003
 4310.7864       6.901       6.931       6.288       5.836       5.589       8.631       0.085     163.515      81.286     163.515     148.413       3.757       0.336       2.615       5.200       0.194       0.299       2.012
 4310.6340       6.908       6.956       6.467       6.148       5.832       8.828       0.096     162.352      81.728     162.352     144.565       4.479       0.330       2.591       5.206       0.197       0.288       1.986
 4310.4816       6.510       6.557       6.191       5.884       5.569       8.631       0.121     160.904      81.910     160.904     146.487       4.667       0.325       2.570       5.196       0.198       0.283       1.964
 4310.3292       6.098       6.186       5.972       5.713       5.380       8.583       0.129     157.157      81.958     157.157     156.865       4.772       0.313       2.584       5.168       0.198       0.284       1.918
 4310.1768       5.864       6.012       5.789       5.539       5.220       8.614       0.128     157.020      81.679     157.020     164.376       4.701       0.315       2.600       5.122       0.196       0.300       1.922
 4310.0244       5.754       5.934       5.679       5.424       5.107       8.576       0.123     156.887      80.898     156.887     165.768       4.408       0.319       2.637       5.059       0.192       0.308       1.939
 4309.8720       5.679       5.868       5.605       5.350       5.025       8.566       0.146     158.429      81.012     158.429     159.362       4.326       0.323       2.674       4.981       0.193       0.327       1.956
 4309.7196       5.643       5.834       5.553       5.285       4.969       8.594       0.148     157.127      79.542     157.127     158.006       3.771       0.328       2.686       4.892       0.185       0.322       1.975
 4309.5672       5.773       5.960       5.658       5.403       5.040       8.634       0.149     156.008      78.682     156.008     148.415       4.014       0.329       2.687       4.794       0.180       0.349       1.983
