~VERSION INFORMATION
VERS.           2.0  :CWLS Log ASCII Standard - VERSION 2.0
WRAP.           NO   :One Line per depth step
CREA. 20000721 15.47 :LAS Creation date <yyyymmdd hh.mm>
#--------------------------------------------------
~WELL INFORMATION
#MNEM.UNIT      DATA             DESCRIPTION
#---- ------ --------------   -----------------------------
STRT .M      4775.7588      :START DEPTH
STOP .M      3909.0600      :STOP DEPTH
STEP .M        -0.1524      :STEP
NULL .          -999.25     :NULL VALUE
COMP .        INPEX BROWSE, LTD.                       :COMPANY
WELL .        GORGONICHTHYS-1                          :WELL
FLD  .        EXPLORATION                              :FIELD
LOC  .        Permit WA-285-P                          :LOCATION
CNTY .        SEDCO-703                                :COUNTY
STAT .        WA                                       :STATE
CTRY .        AUSTRALIA                                :COUNTRY
SRVC .        Schlumberger                             :SERVICE COMPANY
API  .                                                 :API NUMBER
DATE .        12:43:45  Friday, July 21, 2000          :LOG DATE
UWI  .                                                 :UNIQUE WELL ID
#--------------------------------------------------
~PARAMETER INFORMATION
#MNEM.UNIT    VALUE                      DESCRIPTION
#---- -----   --------------------       ------------------------
PDAT .        L.A.T.                     :Permanent Datum
EPD  .M           0.000000               :Elevation of Permanent Datum above Mean Sea Level
LMF  .          Drill Floor              :Logging Measured From (Name of Logging Elevation Reference)
APD  .M          26.400000               :Elevation of Depth Reference (LMF) above Permanent Datum
#--------------------------------------------------
~CURVE INFORMATION
#MNEM.UNIT   API CODE DESCRIPTION
#---- -----  -------- -----------------------
DEPTH.M               :DEPTH (BOREHOLE)
AT10 .OHMM            :Array Induction Two Foot Resistivity A10
AT20 .OHMM            :Array Induction Two Foot Resistivity A20
AT30 .OHMM            :Array Induction Two Foot Resistivity A30
AT60 .OHMM            :Array Induction Two Foot Resistivity A60
AT90 .OHMM            :Array Induction Two Foot Resistivity A90
CALI .IN              :Caliper
DRHO .G/C3            :Bulk Density Correction
DT2  .US/F            :Delta-T Shear - Upper Dipole
DTCO .US/F            :Delta-T Compressional
DTSM .US/F            :Delta-T Shear
GR   .GAPI            :Gamma Ray
PEF  .                :Photoelectric Factor
PR   .                :Poisson Shear/Compressional Ratio
RHOB .G/C3            :Bulk Density
RT   .OHMM            :True Resistivity
SPHI .V/V             :Sonic Porosity
TNPH .V/V             :Thermal Neutron Porosity
VPVS .                :Compressional to Shear Velosity Ratio
#--------------------------------------------------
# 
#    DEPTH       AT10        AT20        AT30        AT60        AT90        CALI        DRHO         DT2        DTCO        DTSM         GR          PEF         PR         RHOB         RT         SPHI        TNPH        VPVS     
#                                                                                                                                                                                                                                     
~A  
# ...
 4430.1156     103.157     105.537      99.618     101.799     106.486       9.535       0.098      93.279      67.945      93.279      61.640       7.974    -999.250       2.310      87.696       0.110       0.059    -999.250
 4429.9632     125.139     123.829     108.129      95.075     101.463       8.993       0.066      94.148      68.590      94.148      69.094       6.048    -999.250       2.380      85.456       0.115       0.065    -999.250
 4429.8108     152.562     145.102     123.557      94.005     100.508       8.867       0.052      97.000      67.701      97.000      68.512       4.359       0.025       2.455      76.903       0.108       0.065       1.433
 4429.6584     161.276     152.213     128.414     100.824     108.435       8.892       0.045      92.745      66.719      92.745      69.282       3.401       0.025       2.474      65.963       0.100       0.058       1.433
 4429.5060     153.601     141.559     109.892      84.747      89.654       9.118       0.043      97.441      66.078      97.441      62.324       3.270       0.074       2.462      56.041       0.095       0.047       1.475
 4429.3536     151.263     119.114      94.689      69.829      72.610       9.268       0.043      98.216      64.828      98.216      58.155       3.517       0.114       2.464      47.898       0.085       0.050       1.515
 4429.2012      95.839      82.858      62.913      47.348      49.052       9.205       0.064      99.112      65.369      99.112      51.239       3.664       0.115       2.507      41.078       0.090       0.057       1.516
 4429.0488      49.142      48.605      39.527      33.896      34.278       9.205       0.058     100.987      67.607     100.987      58.942       3.549       0.094       2.511      35.253       0.107       0.070       1.494
 4428.8964      29.198      29.892      27.613      26.494      26.473       9.510       0.050     106.350      68.676     106.350      71.523       3.478       0.142       2.492      30.640       0.115       0.076       1.549
 4428.7440      21.836      22.421      21.323      20.858      20.696       9.639       0.087     110.469      69.573     110.469      85.145       3.349       0.171       2.504      27.485       0.122       0.086       1.588
 4428.5916      20.017      20.746      19.902      21.242      20.817       9.458       0.121     114.350      70.982     114.350      83.989       3.818       0.187       2.480      25.771       0.132       0.085       1.611
 4428.4392      21.273      22.348      21.660      24.407      23.844       9.941       0.141     113.678      70.164     113.678      74.233       4.210       0.192       2.438      25.259       0.126       0.080       1.620
 4428.2868      23.972      25.264      24.585      26.866      26.041       9.763       0.167     112.895      70.417     112.895      68.588       4.979       0.182       2.420      25.646       0.128       0.077       1.603
 4428.1344      26.417      27.753      27.193      28.808      27.734       9.605       0.179     111.237      69.919     111.237      66.406       5.312       0.173       2.417      26.659       0.124       0.079       1.591
 4427.9820      28.440      29.819      29.334      30.582      29.064       9.845       0.171     107.419      65.833     107.419      73.723       5.368       0.199       2.415      28.080       0.093       0.076       1.632
 4427.8296      30.269      31.310      30.571      32.678      30.615       9.460       0.179     101.752      65.108     101.752      80.910       5.243       0.153       2.445      29.743       0.087       0.079       1.563
 4427.6772      31.924      32.452      31.944      34.676      32.048       9.390       0.159     101.780      64.969     101.780      83.477       5.311       0.156       2.451      31.654       0.086       0.075       1.567
 4427.5248      34.101      34.535      33.548      36.278      32.852       9.105       0.141     103.766      63.241     103.766      88.484       5.689       0.205       2.480      33.960       0.072       0.079       1.641
 4427.3724      36.874      38.639      34.520      37.585      33.725       9.310       0.143     108.429      62.345     108.429      78.161       6.341       0.253       2.527      36.837       0.064       0.075       1.739
 4427.2200      40.076      46.623      39.891      43.940      38.358       9.563       0.127     109.803      63.992     109.803      68.427       5.898       0.243       2.529      40.237       0.078       0.072       1.716
 4427.0676      44.952      63.728      49.806      56.724      47.322      10.107       0.082     111.838      65.654     111.838      49.030       5.475       0.237       2.467      44.689       0.092       0.060       1.703
 4426.9152      53.624     103.857      62.361      68.584      53.755      10.089       0.063     112.945      67.287     112.945      40.425       5.020       0.225       2.409      51.903       0.105       0.052       1.679
 4426.7628      84.433     178.249     104.094     122.585      81.669       9.790       0.047     110.958      69.356     110.958      37.090       5.133       0.179       2.391      63.467       0.120       0.052       1.600
 4426.6104     193.734     211.205     116.025     132.369     101.941      10.338       0.017     106.630      68.287     106.630      43.906       5.383       0.152       2.373      74.257       0.112       0.057       1.561
 4426.4580     149.820     165.910     107.458     113.788      92.028      10.243       0.011      93.399      69.228      93.399      57.790       5.051       0.152       2.393      78.083       0.119       0.071       1.561
 4426.3056      72.449     134.608      94.565     112.335      84.886       9.930       0.012      98.342      67.147      98.342      76.443       4.530       0.063       2.433      75.442       0.104       0.079       1.465
 4426.1532      56.412     117.181      70.211      76.869      61.578       9.607       0.013      97.086      64.584      97.086      90.753       4.209       0.103       2.473      71.553       0.083       0.087       1.503
 4426.0008      48.948      83.647      59.550      69.783      57.537       9.592       0.031      96.543      62.720      96.543     100.223       4.250       0.135       2.527      65.875       0.067       0.088       1.539
 4425.8484      40.877      56.072      49.335      58.105      49.742       9.330       0.031     100.620      63.316     100.620     101.473       4.815       0.172       2.544      58.656       0.072       0.089       1.589
 4425.6960      35.487      43.723      41.312      51.790      44.799       9.683       0.053     103.134      62.412     103.134      98.650       4.956       0.211       2.557      52.071       0.064       0.081       1.652
 4425.5436      33.812      40.504      40.891      51.642      45.992       9.538       0.061     106.522      63.438     106.522      96.214       4.793       0.225       2.541      47.154       0.073       0.079       1.679
 4425.3912      34.429      41.260      40.144      48.355      43.468       9.565       0.070     110.565      63.996     110.565      95.141       5.280       0.248       2.498      43.725       0.078       0.072       1.728
 4425.2388      34.021      39.945      39.532      47.138      43.119       9.493       0.085     113.999      65.967     113.999      99.515       5.537       0.248       2.483      41.201       0.094       0.070       1.728
 4425.0864      31.134      35.085      36.000      41.172      38.367       9.435       0.098     116.513      67.757     116.513      98.361       6.074       0.244       2.472      39.200       0.108       0.069       1.720
 4424.9340      28.376      31.098      32.506      35.366      33.319       9.475       0.089     116.082      70.909     116.082      97.832       5.148       0.202       2.450      37.629       0.131       0.086       1.637
 4424.7816      27.884      30.659      31.480      35.005      33.344       9.595       0.101     117.136      71.657     117.136      96.085       4.914       0.201       2.446      36.570       0.137       0.091       1.635
