~VERSION INFORMATION
VERS.           2.0  :CWLS Log ASCII Standard - VERSION 2.0
WRAP.           NO   :One Line per depth step
CREA. 20000721 15.47 :LAS Creation date <yyyymmdd hh.mm>
#--------------------------------------------------
~WELL INFORMATION
#MNEM.UNIT      DATA             DESCRIPTION
#---- ------ --------------   -----------------------------
STRT .M      4775.7588      :START DEPTH
STOP .M      3909.0600      :STOP DEPTH
STEP .M        -0.1524      :STEP
NULL .          -999.25     :NULL VALUE
COMP .        INPEX BROWSE, LTD.                       :COMPANY
WELL .        GORGONICHTHYS-1                          :WELL
FLD  .        EXPLORATION                              :FIELD
LOC  .        Permit WA-285-P                          :LOCATION
CNTY .        SEDCO-703                                :COUNTY
STAT .        WA                                       :STATE
CTRY .        AUSTRALIA                                :COUNTRY
SRVC .        Schlumberger                             :SERVICE COMPANY
API  .                                                 :API NUMBER
DATE .        12:43:45  Friday, July 21, 2000          :LOG DATE
UWI  .                                                 :UNIQUE WELL ID
#--------------------------------------------------
~PARAMETER INFORMATION
#MNEM.UNIT    VALUE                      DESCRIPTION
#---- -----   --------------------       ------------------------
PDAT .        L.A.T.                     :Permanent Datum
EPD  .M           0.000000               :Elevation of Permanent Datum above Mean Sea Level
LMF  .          Drill Floor              :Logging Measured From (Name of Logging Elevation Reference)
APD  .M          26.400000               :Elevation of Depth Reference (LMF) above Permanent Datum
#--------------------------------------------------
~CURVE INFORMATION
#MNEM.UNIT   API CODE DESCRIPTION
#---- -----  -------- -----------------------
DEPTH.M               :DEPTH (BOREHOLE)
AT10 .OHMM            :Array Induction Two Foot Resistivity A10
AT20 .OHMM            :Array Induction Two Foot Resistivity A20
AT30 .OHMM            :Array Induction Two Foot Resistivity A30
AT60 .OHMM            :Array Induction Two Foot Resistivity A60
AT90 .OHMM            :Array Induction Two Foot Resistivity A90
CALI .IN              :Caliper
DRHO .G/C3            :Bulk Density Correction
DT2  .US/F            :Delta-T Shear - Upper Dipole
DTCO .US/F            :Delta-T Compressional
DTSM .US/F            :Delta-T Shear
GR   .GAPI            :Gamma Ray
PEF  .                :Photoelectric Factor
PR   .                :Poisson Shear/Compressional Ratio
RHOB .G/C3            :Bulk Density
RT   .OHMM            :True Resistivity
SPHI .V/V             :Sonic Porosity
TNPH .V/V             :Thermal Neutron Porosity
VPVS .                :Compressional to Shear Velosity Ratio
#--------------------------------------------------
# 
#    DEPTH       AT10        AT20        AT30        AT60        AT90        CALI        DRHO         DT2        DTCO        DTSM         GR          PEF         PR         RHOB         RT         SPHI        TNPH        VPVS     
#                                                                                                                                                                                                                                     
~A  
# ...
 3914.3940    1950.000    1950.000    1941.174      62.178     189.346       8.526      -0.882     153.789      54.529     153.789      74.134      36.400       0.428       1.908     298.302      -0.017       0.298       2.820
 3914.2416    1950.000    1950.000    1950.000      65.662     222.471       8.535      -0.895     153.441      54.672     153.441      73.328      26.242       0.427       1.893     296.114      -0.015       0.286       2.807
 3914.0892    1950.000    1950.000    1950.000      69.732     271.973       8.528      -0.907     152.723      54.081     152.723      67.983      23.525       0.428       1.887     292.506      -0.022       0.280       2.824
 3913.9368    1950.000    1950.000    1950.000      73.345     330.854       8.526      -0.909     149.057      53.879     149.057      64.637      26.351       0.425       1.901     288.425      -0.025       0.285       2.767
 3913.7844    1950.000    1950.000    1950.000      75.628     379.054       8.551      -0.909     146.743      53.897     146.743      64.083      26.726       0.422       1.907     284.329      -0.024       0.282       2.723
 3913.6320    1950.000    1950.000    1950.000      76.227     392.928       8.533      -0.901     144.770      53.580     144.770      68.814      25.259       0.421       1.938     280.430      -0.028       0.288       2.702
 3913.4796    1950.000    1950.000    1950.000      75.340     369.068       8.535      -0.896     144.081      53.422     144.081      71.137      24.543       0.420       1.961     276.863      -0.030       0.298       2.697
 3913.3272    1950.000    1950.000    1950.000      73.556     327.416       8.531      -0.874     143.388      52.658     143.388      71.961      23.020       0.422       2.022     273.689      -0.040       0.289       2.723
 3913.1748    1950.000    1950.000    1950.000      71.683     289.897       8.535      -0.857     143.380      52.854     143.380      73.138      31.071       0.421       2.063     270.898      -0.037       0.275       2.713
 3913.0224    1950.000    1950.000    1950.000      70.485     267.592       8.535      -0.863     143.600      51.656     143.600      73.393      34.759       0.426       2.069     268.453      -0.053       0.271       2.780
 3912.8700    1950.000    1950.000    1950.000      70.320     262.018       8.526      -0.854     143.793      52.704     143.793      72.164      49.592       0.422       2.069     266.368      -0.039       0.267       2.728
 3912.7176    1950.000    1950.000    1950.000      70.846     267.715       8.535      -0.875     144.181      51.751     144.181      69.467      28.530       0.426       1.984     265.256      -0.051       0.277       2.786
 3912.5652    1950.000    1950.000    1950.000      71.072     271.602       8.535      -0.892     144.362      53.213     144.362      68.814      25.627       0.421       1.907     266.521      -0.033       0.280       2.713
 3912.4128    1950.000    1950.000    1950.000      69.953     258.603       8.528      -0.925     143.363      53.473     143.363      67.787      20.609       0.419       1.797     271.482      -0.030       0.307       2.681
 3912.2604    1950.000    1950.000    1950.000      67.252     228.016       8.526      -0.930     143.363      53.473     143.363      70.203      22.375       0.419       1.766     279.642      -0.030       0.295       2.681
 3912.1080    1950.000    1950.000    1950.000      63.737     193.796       8.540      -0.942     143.363      53.473     143.363      70.241      28.363       0.419       1.741     288.241      -0.030       0.302       2.681
 3911.9556    1950.000    1950.000    1950.000      60.504     167.103       8.526      -0.938     143.363      53.473     143.363      74.438      35.409       0.419       1.759     293.378      -0.030       0.295       2.681
 3911.8032    1950.000    1950.000    1950.000      58.328     150.881       8.533      -0.948     143.363      53.473     143.363      69.942      34.305       0.419       1.737     292.497      -0.030       0.320       2.681
 3911.6508    1950.000    1950.000    1950.000      57.508     144.200       8.535      -0.945     143.363      53.473     143.363      70.094      25.001       0.419       1.712     286.156      -0.030       0.329       2.681
 3911.4984    1950.000    1950.000    1950.000      57.957     145.228       8.531      -0.947     143.363      53.473     143.363      71.187      20.952       0.419       1.696     277.100      -0.030       0.329       2.681
 3911.3460    1950.000    1950.000    1938.239      59.257     151.450       8.531      -0.936     143.363      53.473     143.363      72.939      23.399       0.419       1.712     268.244      -0.030       0.308       2.681
 3911.1936    1950.000    1950.000    1840.356      60.769     158.945       8.528      -0.933     143.363      53.473     143.363      71.996      26.538       0.419       1.728     261.356      -0.030       0.308       2.681
 3911.0412    1950.000    1950.000    1668.748      61.962     164.116       8.528      -0.932     143.363      53.473     143.363      66.193      32.554       0.419       1.705     256.794      -0.030       0.321       2.681
 3910.8888    1950.000    1950.000    1447.319      62.868     166.719       8.537      -0.948     143.363      53.473     143.363      70.834      24.833       0.419       1.660     253.895      -0.030       0.349       2.681
 3910.7364    1950.000    1950.000    1236.376      64.082     170.622       8.528      -0.956     143.363      53.473     143.363      74.925      28.145       0.419       1.627     252.069      -0.030       0.337       2.681
 3910.5840    1950.000    1950.000    1086.987      66.144     180.061       8.533      -0.958     143.363      53.473     143.363      79.864      30.543       0.419       1.635     251.263      -0.030       0.325       2.681
 3910.4316    1950.000    1950.000    1020.152      68.721     194.716       8.535      -0.955     143.363      53.473     143.363      75.434      45.710       0.419       1.640     251.867      -0.030       0.303       2.681
 3910.2792    1950.000    1950.000    1039.752      70.297     205.814       8.526      -0.958     143.363      53.473     143.363      75.051      31.815       0.419       1.638     254.339      -0.030       0.319       2.681
 3910.1268    1950.000    1950.000    1145.051      69.301     201.356       8.533      -0.958     143.363      53.473     143.363      76.325      29.300       0.419       1.646     258.812      -0.030       0.321       2.681
 3909.9744    1950.000    1950.000    1326.688      66.101     183.646       8.526      -0.952     143.363      53.473     143.363      77.325      24.182       0.419       1.698     264.607      -0.030       0.337       2.681
 3909.8220    1950.000    1950.000    1550.379      62.925     167.476       8.528      -0.948     143.363      53.473     143.363      76.558      25.681       0.419       1.746     270.243      -0.030       0.315       2.681
 3909.6696    1950.000    1950.000    1755.473      61.877     163.768       8.526      -0.936     143.363      53.473     143.363      73.878      23.185       0.419       1.794     274.210      -0.030       0.323       2.681
 3909.5172    1950.000    1950.000    1893.529      63.927     178.188       8.542      -0.933     143.363      53.473     143.363      75.259      20.412       0.419       1.802     275.364      -0.030       0.334       2.681
 3909.3648    1950.000    1950.000    1893.529      63.927     178.188       8.540      -0.936     143.363      53.473     143.363      72.341      19.317       0.419       1.804     275.364      -0.030       0.355       2.681
 3909.2124    1950.000    1950.000    1893.529      63.927     178.188       8.523      -0.936     143.363      53.473     143.363      75.279      19.317       0.419       1.804     275.364      -0.030       0.326       2.681
 3909.0600    1950.000    1950.000    1893.529      63.927     178.188       8.537      -0.936     143.363      53.473     143.363      75.279      19.317       0.419       1.804     275.364      -0.030       0.325       2.681
