~VERSION INFORMATION
VERS.           2.0  :CWLS Log ASCII Standard - VERSION 2.0
WRAP.           NO   :One Line per depth step
CREA. 20000721 15.47 :LAS Creation date <yyyymmdd hh.mm>
#--------------------------------------------------
~WELL INFORMATION
#MNEM.UNIT      DATA             DESCRIPTION
#---- ------ --------------   -----------------------------
STRT .M      4775.7588      :START DEPTH
STOP .M      3909.0600      :STOP DEPTH
STEP .M        -0.1524      :STEP
NULL .          -999.25     :NULL VALUE
COMP .        INPEX BROWSE, LTD.                       :COMPANY
WELL .        GORGONICHTHYS-1                          :WELL
FLD  .        EXPLORATION                              :FIELD
LOC  .        Permit WA-285-P                          :LOCATION
CNTY .        SEDCO-703                                :COUNTY
STAT .        WA                                       :STATE
CTRY .        AUSTRALIA                                :COUNTRY
SRVC .        Schlumberger                             :SERVICE COMPANY
API  .                                                 :API NUMBER
DATE .        12:43:45  Friday, July 21, 2000          :LOG DATE
UWI  .                                                 :UNIQUE WELL ID
#--------------------------------------------------
~PARAMETER INFORMATION
#MNEM.UNIT    VALUE                      DESCRIPTION
#---- -----   --------------------       ------------------------
PDAT .        L.A.T.                     :Permanent Datum
EPD  .M           0.000000               :Elevation of Permanent Datum above Mean Sea Level
LMF  .          Drill Floor              :Logging Measured From (Name of Logging Elevation Reference)
APD  .M          26.400000               :Elevation of Depth Reference (LMF) above Permanent Datum
#--------------------------------------------------
~CURVE INFORMATION
#MNEM.UNIT   API CODE DESCRIPTION
#---- -----  -------- -----------------------
DEPTH.M               :DEPTH (BOREHOLE)
AT10 .OHMM            :Array Induction Two Foot Resistivity A10
AT20 .OHMM            :Array Induction Two Foot Resistivity A20
AT30 .OHMM            :Array Induction Two Foot Resistivity A30
AT60 .OHMM            :Array Induction Two Foot Resistivity A60
AT90 .OHMM            :Array Induction Two Foot Resistivity A90
CALI .IN              :Caliper
DRHO .G/C3            :Bulk Density Correction
DT2  .US/F            :Delta-T Shear - Upper Dipole
DTCO .US/F            :Delta-T Compressional
DTSM .US/F            :Delta-T Shear
GR   .GAPI            :Gamma Ray
PEF  .                :Photoelectric Factor
PR   .                :Poisson Shear/Compressional Ratio
RHOB .G/C3            :Bulk Density
RT   .OHMM            :True Resistivity
SPHI .V/V             :Sonic Porosity
TNPH .V/V             :Thermal Neutron Porosity
VPVS .                :Compressional to Shear Velosity Ratio
#--------------------------------------------------
# 
#    DEPTH       AT10        AT20        AT30        AT60        AT90        CALI        DRHO         DT2        DTCO        DTSM         GR          PEF         PR         RHOB         RT         SPHI        TNPH        VPVS     
#                                                                                                                                                                                                                                     
~A  
# ...
 4029.6084      53.350      56.126      75.769      84.757      90.140       8.344      -0.002     112.324      70.356     112.324      46.339       2.244       0.177       2.501      79.010       0.128       0.103       1.597
 4029.4560      48.268      53.770      66.885      73.869      77.336       8.337       0.002     113.418      70.209     113.418      51.075       2.439       0.189       2.520      63.274       0.126       0.096       1.615
 4029.3036      62.615      74.987      70.733      78.566      80.941       8.368       0.010     113.549      68.619     113.549      53.264       2.747       0.212       2.517      52.565       0.115       0.083       1.655
 4029.1512      69.233      73.418      54.778      56.710      58.970       8.341       0.037     114.435      66.169     114.435      62.205       2.689       0.249       2.522      44.797       0.096       0.083       1.729
 4028.9988      40.565      39.564      36.775      36.924      37.784       8.385       0.093     116.198      66.785     116.198      83.792       2.738       0.253       2.584      39.245       0.101       0.109       1.740
 4028.8464      23.218      21.932      23.732      23.433      23.838       8.830       0.089     114.988      68.586     114.988     102.313       3.093       0.224       2.617      36.032       0.115       0.142       1.677
 4028.6940      19.053      17.711      21.543      21.962      22.292       8.668       0.094     115.141      68.791     115.141      97.436       4.199       0.222       2.643      35.353       0.116       0.145       1.674
 4028.5416      23.248      21.486      24.990      26.686      27.090       8.407       0.088     114.044      69.594     114.044      75.849       6.007       0.203       2.667      37.411       0.122       0.114       1.639
 4028.3892      42.157      38.359      38.051      42.848      43.511       8.442       0.043     112.169      71.162     112.169      47.355       5.764       0.163       2.550      42.642       0.133       0.103       1.576
 4028.2368      96.856      84.808      73.453      87.006      87.687       8.355      -0.004     110.844      71.243     110.844      33.002       3.659       0.148       2.453      51.778       0.134       0.107       1.556
 4028.0844     162.219     150.283     133.078     151.291     153.691       8.342      -0.003     109.760      71.336     109.760      28.138       2.564       0.134       2.391      65.600       0.134       0.110       1.539
 4027.9320     181.248     177.713     156.723     158.372     160.039       8.318      -0.005     109.348      71.118     109.348      26.360       2.190       0.133       2.389      84.099       0.133       0.109       1.538
 4027.7796     163.814     161.886     153.457     151.563     152.902       8.315      -0.004     110.504      71.249     110.504      28.730       2.186       0.144       2.395     104.569       0.134       0.104       1.551
 4027.6272     149.497     148.107     144.142     150.695     151.510       8.322      -0.003     109.784      70.091     109.784      27.964       2.167       0.156       2.417     120.809       0.126       0.098       1.566
 4027.4748     138.485     137.333     135.467     141.664     141.296       8.309      -0.001     108.316      68.878     108.316      33.073       2.245       0.161       2.445     127.905       0.117       0.096       1.573
 4027.3224     124.928     123.407     125.804     132.391     131.229       8.309      -0.003     107.117      68.026     107.117      30.774       2.347       0.162       2.470     127.150       0.110       0.086       1.575
 4027.1700     115.956     114.101     116.187     123.129     121.427       8.324      -0.004     106.517      67.906     106.517      31.550       2.360       0.158       2.487     123.592       0.110       0.080       1.569
 4027.0176     113.881     112.352     112.359     117.978     115.267       8.322      -0.007     107.409      68.168     107.409      28.672       2.259       0.163       2.476     120.755       0.112       0.079       1.576
 4026.8652     112.983     111.816     111.507     116.801     113.496       8.322      -0.006     107.821      67.749     107.821      27.546       2.050       0.174       2.478     119.620       0.108       0.079       1.591
 4026.7128     112.505     112.173     111.387     117.099     112.720       8.318      -0.006     109.307      68.634     109.307      25.734       2.069       0.175       2.470     120.540       0.115       0.077       1.593
 4026.5604     116.349     117.599     116.633     123.334     117.967       8.315      -0.005     110.377      69.692     110.377      26.440       2.018       0.169       2.456     123.735       0.123       0.078       1.584
 4026.4080     129.107     131.446     130.105     137.946     131.214       8.317      -0.007     111.931      69.491     111.931      28.103       2.128       0.186       2.431     128.808       0.121       0.084       1.611
 4026.2556     147.849     149.128     145.533     152.129     143.744       8.315      -0.005     113.221      70.352     113.221      28.893       2.191       0.186       2.418     134.818       0.127       0.089       1.609
 4026.1032     152.308     152.557     150.541     162.636     151.635       8.319      -0.003     115.130      70.891     115.130      25.565       2.371       0.195       2.428     141.419       0.131       0.088       1.624
 4025.9508     155.193     155.855     160.678     177.127     162.807       8.319      -0.004     117.681      71.158     117.681      24.142       2.387       0.212       2.419     148.405       0.133       0.095       1.654
 4025.7984     180.467     181.664     165.280     180.232     163.482       8.317      -0.004     118.209      72.142     118.209      23.759       2.185       0.203       2.406     154.457       0.140       0.104       1.639
 4025.6460     198.404     197.935     173.801     180.980     162.207       8.317      -0.002     117.795      71.208     117.795      23.121       2.068       0.212       2.394     157.233       0.133       0.107       1.654
 4025.4936     204.797     204.167     174.837     187.316     167.643       8.319      -0.004     116.162      73.933     116.162      23.487       2.058       0.160       2.390     154.531       0.152       0.101       1.571
 4025.3412     210.502     209.388     169.218     181.028     162.324       8.313      -0.006     115.376      71.774     115.376      26.442       2.151       0.184       2.388     142.586       0.137       0.099       1.607
 4025.1888     215.254     210.659     160.561     166.990     151.654       8.318      -0.009     114.791      71.977     114.791      29.760       2.129       0.176       2.388     122.036       0.139       0.098       1.595
 4025.0364     220.908     215.964     144.579     151.915     139.302       8.315      -0.002     114.400      68.856     114.400      31.674       2.105       0.216       2.408     100.103       0.117       0.100       1.661
 4024.8840     171.224     185.756     115.040     111.212     105.222       8.329       0.007     113.307      70.844     113.307      31.274       2.106       0.179       2.430      82.685       0.131       0.095       1.599
 4024.7316     104.419     131.822      89.729      77.025      74.454       8.465       0.019     113.999      69.352     113.999      32.306       2.415       0.206       2.433      70.593       0.120       0.093       1.644
 4024.5792      66.518      83.997      70.632      65.886      63.691       8.519       0.042     114.706      68.636     114.706      42.514       3.025       0.221       2.435      62.374       0.115       0.094       1.671
 4024.4268      44.591      50.920      54.781      54.052      52.434       8.504       0.068     114.694      68.519     114.694      57.560       3.965       0.223       2.462      56.452       0.114       0.100       1.674
 4024.2744      34.359      37.528      44.759      45.931      44.544       8.422       0.086     113.611      69.320     113.611      62.525       4.469       0.203       2.484      51.873       0.120       0.100       1.639
