~VERSION INFORMATION
VERS.           2.0  :CWLS Log ASCII Standard - VERSION 2.0
WRAP.           NO   :One Line per depth step
CREA. 20000721 15.47 :LAS Creation date <yyyymmdd hh.mm>
#--------------------------------------------------
~WELL INFORMATION
#MNEM.UNIT      DATA             DESCRIPTION
#---- ------ --------------   -----------------------------
STRT .M      4775.7588      :START DEPTH
STOP .M      3909.0600      :STOP DEPTH
STEP .M        -0.1524      :STEP
NULL .          -999.25     :NULL VALUE
COMP .        INPEX BROWSE, LTD.                       :COMPANY
WELL .        GORGONICHTHYS-1                          :WELL
FLD  .        EXPLORATION                              :FIELD
LOC  .        Permit WA-285-P                          :LOCATION
CNTY .        SEDCO-703                                :COUNTY
STAT .        WA                                       :STATE
CTRY .        AUSTRALIA                                :COUNTRY
SRVC .        Schlumberger                             :SERVICE COMPANY
API  .                                                 :API NUMBER
DATE .        12:43:45  Friday, July 21, 2000          :LOG DATE
UWI  .                                                 :UNIQUE WELL ID
#--------------------------------------------------
~PARAMETER INFORMATION
#MNEM.UNIT    VALUE                      DESCRIPTION
#---- -----   --------------------       ------------------------
PDAT .        L.A.T.                     :Permanent Datum
EPD  .M           0.000000               :Elevation of Permanent Datum above Mean Sea Level
LMF  .          Drill Floor              :Logging Measured From (Name of Logging Elevation Reference)
APD  .M          26.400000               :Elevation of Depth Reference (LMF) above Permanent Datum
#--------------------------------------------------
~CURVE INFORMATION
#MNEM.UNIT   API CODE DESCRIPTION
#---- -----  -------- -----------------------
DEPTH.M               :DEPTH (BOREHOLE)
AT10 .OHMM            :Array Induction Two Foot Resistivity A10
AT20 .OHMM            :Array Induction Two Foot Resistivity A20
AT30 .OHMM            :Array Induction Two Foot Resistivity A30
AT60 .OHMM            :Array Induction Two Foot Resistivity A60
AT90 .OHMM            :Array Induction Two Foot Resistivity A90
CALI .IN              :Caliper
DRHO .G/C3            :Bulk Density Correction
DT2  .US/F            :Delta-T Shear - Upper Dipole
DTCO .US/F            :Delta-T Compressional
DTSM .US/F            :Delta-T Shear
GR   .GAPI            :Gamma Ray
PEF  .                :Photoelectric Factor
PR   .                :Poisson Shear/Compressional Ratio
RHOB .G/C3            :Bulk Density
RT   .OHMM            :True Resistivity
SPHI .V/V             :Sonic Porosity
TNPH .V/V             :Thermal Neutron Porosity
VPVS .                :Compressional to Shear Velosity Ratio
#--------------------------------------------------
# 
#    DEPTH       AT10        AT20        AT30        AT60        AT90        CALI        DRHO         DT2        DTCO        DTSM         GR          PEF         PR         RHOB         RT         SPHI        TNPH        VPVS     
#                                                                                                                                                                                                                                     
~A  
# ...
 4260.0372       3.577       3.774       3.611       3.341       3.380       8.388      -0.012     145.738      77.894     145.738     140.483       3.705       0.300       2.673       3.325       0.176       0.202       1.871
 4259.8848       3.537       3.737       3.583       3.318       3.358       8.382      -0.011     145.921      78.524     145.921     135.257       3.707       0.296       2.669       3.314       0.179       0.213       1.858
 4259.7324       3.510       3.706       3.551       3.291       3.332       8.375      -0.008     146.302      78.465     146.302     134.790       3.590       0.298       2.664       3.297       0.179       0.211       1.865
 4259.5800       3.527       3.717       3.563       3.293       3.337       8.395      -0.013     146.429      78.466     146.429     138.461       3.632       0.299       2.640       3.276       0.179       0.215       1.866
 4259.4276       3.578       3.773       3.599       3.307       3.355       8.384      -0.011     146.189      78.194     146.189     142.226       3.691       0.300       2.643       3.250       0.177       0.205       1.870
 4259.2752       3.575       3.786       3.592       3.281       3.327       8.386      -0.008     146.338      79.045     146.338     143.670       3.858       0.294       2.654       3.216       0.182       0.213       1.851
 4259.1228       3.424       3.636       3.458       3.174       3.214       8.386      -0.006     146.405      78.573     146.405     139.358       3.951       0.298       2.659       3.173       0.180       0.204       1.863
 4258.9704       3.208       3.402       3.273       3.044       3.081       8.379      -0.009     146.800      78.805     146.800     138.845       4.019       0.298       2.659       3.126       0.181       0.211       1.863
 4258.8180       3.073       3.251       3.146       2.960       2.995       8.388      -0.005     147.338      79.099     147.338     139.777       4.162       0.298       2.653       3.082       0.183       0.214       1.863
 4258.6656       3.039       3.213       3.103       2.933       2.972       8.379      -0.007     148.255      79.730     148.255     140.496       4.214       0.297       2.651       3.047       0.186       0.215       1.859
 4258.5132       3.035       3.209       3.100       2.913       2.954       8.383      -0.009     149.295      79.852     149.295     139.279       4.342       0.300       2.646       3.023       0.187       0.215       1.870
 4258.3608       3.027       3.199       3.090       2.895       2.937       8.375      -0.009     149.633      79.806     149.633     137.626       4.267       0.301       2.660       3.016       0.186       0.213       1.875
 4258.2084       3.046       3.218       3.111       2.908       2.953       8.394      -0.005     148.410      79.764     148.410     142.373       4.248       0.297       2.682       3.024       0.186       0.212       1.861
 4258.0560       3.110       3.283       3.172       2.953       3.001       8.383      -0.009     148.428      78.644     148.428     147.052       3.865       0.305       2.686       3.043       0.180       0.198       1.887
 4257.9036       3.218       3.394       3.282       3.055       3.111       8.386      -0.008     146.841      78.461     146.841     145.723       3.663       0.300       2.668       3.066       0.179       0.201       1.872
 4257.7512       3.374       3.558       3.412       3.141       3.198       8.383      -0.012     146.187      78.077     146.187     143.498       3.434       0.300       2.642       3.092       0.177       0.194       1.872
 4257.5988       3.518       3.714       3.538       3.230       3.297       8.361      -0.013     144.122      77.191     144.122     137.681       3.721       0.299       2.636       3.124       0.172       0.193       1.867
 4257.4464       3.560       3.758       3.574       3.244       3.309       8.401      -0.018     143.211      77.265     143.211     142.600       4.205       0.295       2.645       3.160       0.172       0.189       1.853
 4257.2940       3.528       3.719       3.555       3.241       3.302       8.383      -0.019     142.381      75.729     142.381     141.027       4.409       0.303       2.649       3.193       0.163       0.185       1.880
 4257.1416       3.533       3.718       3.546       3.244       3.304       8.381      -0.020     141.282      76.023     141.282     135.687       4.321       0.296       2.654       3.214       0.165       0.182       1.858
 4256.9892       3.554       3.736       3.553       3.255       3.312       8.379      -0.016     140.927      75.904     140.927     133.103       3.891       0.296       2.657       3.220       0.164       0.172       1.857
 4256.8368       3.489       3.674       3.472       3.192       3.246       8.390      -0.014     141.060      76.029     141.060     133.231       4.005       0.295       2.668       3.209       0.165       0.184       1.855
 4256.6844       3.344       3.525       3.367       3.108       3.159       8.382      -0.009     141.736      76.511     141.736     142.543       3.941       0.294       2.667       3.189       0.168       0.182       1.852
 4256.5320       3.220       3.384       3.243       3.012       3.056       8.377      -0.009     142.227      76.804     142.227     140.125       3.828       0.294       2.666       3.166       0.169       0.197       1.852
 4256.3796       3.209       3.360       3.237       3.007       3.054       8.383      -0.008     142.668      77.382     142.668     140.905       3.756       0.292       2.668       3.148       0.173       0.197       1.844
 4256.2272       3.285       3.439       3.303       3.064       3.115       8.383      -0.011     142.713      77.792     142.713     132.961       3.730       0.289       2.664       3.138       0.175       0.197       1.835
 4256.0748       3.347       3.509       3.357       3.109       3.158       8.388      -0.015     143.410      77.284     143.410     135.960       3.857       0.295       2.655       3.132       0.172       0.193       1.856
 4255.9224       3.366       3.528       3.376       3.122       3.173       8.388      -0.018     143.185      77.080     143.185     135.180       3.805       0.296       2.650       3.129       0.171       0.190       1.858
 4255.7700       3.376       3.535       3.383       3.123       3.169       8.379      -0.012     142.729      76.834     142.729     138.044       3.807       0.296       2.664       3.129       0.169       0.188       1.858
 4255.6176       3.377       3.532       3.385       3.127       3.170       8.379      -0.010     142.833      76.430     142.833     134.285       3.736       0.299       2.662       3.134       0.167       0.189       1.869
 4255.4652       3.376       3.528       3.386       3.132       3.170       8.386      -0.012     142.783      76.455     142.783     136.304       3.710       0.299       2.655       3.148       0.167       0.186       1.868
 4255.3128       3.388       3.539       3.395       3.143       3.182       8.388      -0.007     141.576      76.160     141.576     138.869       3.820       0.296       2.654       3.168       0.165       0.187       1.859
 4255.1604       3.382       3.534       3.397       3.144       3.178       8.373      -0.006     141.874      75.828     141.874     140.656       3.787       0.300       2.650       3.186       0.163       0.182       1.871
 4255.0080       3.357       3.505       3.374       3.135       3.170       8.382      -0.009     141.643      75.663     141.643     139.012       3.889       0.300       2.649       3.202       0.162       0.191       1.872
 4254.8556       3.370       3.514       3.383       3.154       3.186       8.388      -0.009     141.639      75.659     141.639     135.806       3.903       0.300       2.649       3.224       0.162       0.197       1.872
 4254.7032       3.420       3.571       3.421       3.205       3.236       8.382      -0.006     141.173      75.756     141.173     136.447       4.133       0.298       2.662       3.255       0.163       0.198       1.864
