~VERSION INFORMATION
VERS.           2.0  :CWLS Log ASCII Standard - VERSION 2.0
WRAP.           NO   :One Line per depth step
CREA. 20000721 15.47 :LAS Creation date <yyyymmdd hh.mm>
#--------------------------------------------------
~WELL INFORMATION
#MNEM.UNIT      DATA             DESCRIPTION
#---- ------ --------------   -----------------------------
STRT .M      4775.7588      :START DEPTH
STOP .M      3909.0600      :STOP DEPTH
STEP .M        -0.1524      :STEP
NULL .          -999.25     :NULL VALUE
COMP .        INPEX BROWSE, LTD.                       :COMPANY
WELL .        GORGONICHTHYS-1                          :WELL
FLD  .        EXPLORATION                              :FIELD
LOC  .        Permit WA-285-P                          :LOCATION
CNTY .        SEDCO-703                                :COUNTY
STAT .        WA                                       :STATE
CTRY .        AUSTRALIA                                :COUNTRY
SRVC .        Schlumberger                             :SERVICE COMPANY
API  .                                                 :API NUMBER
DATE .        12:43:45  Friday, July 21, 2000          :LOG DATE
UWI  .                                                 :UNIQUE WELL ID
#--------------------------------------------------
~PARAMETER INFORMATION
#MNEM.UNIT    VALUE                      DESCRIPTION
#---- -----   --------------------       ------------------------
PDAT .        L.A.T.                     :Permanent Datum
EPD  .M           0.000000               :Elevation of Permanent Datum above Mean Sea Level
LMF  .          Drill Floor              :Logging Measured From (Name of Logging Elevation Reference)
APD  .M          26.400000               :Elevation of Depth Reference (LMF) above Permanent Datum
#--------------------------------------------------
~CURVE INFORMATION
#MNEM.UNIT   API CODE DESCRIPTION
#---- -----  -------- -----------------------
DEPTH.M               :DEPTH (BOREHOLE)
AT10 .OHMM            :Array Induction Two Foot Resistivity A10
AT20 .OHMM            :Array Induction Two Foot Resistivity A20
AT30 .OHMM            :Array Induction Two Foot Resistivity A30
AT60 .OHMM            :Array Induction Two Foot Resistivity A60
AT90 .OHMM            :Array Induction Two Foot Resistivity A90
CALI .IN              :Caliper
DRHO .G/C3            :Bulk Density Correction
DT2  .US/F            :Delta-T Shear - Upper Dipole
DTCO .US/F            :Delta-T Compressional
DTSM .US/F            :Delta-T Shear
GR   .GAPI            :Gamma Ray
PEF  .                :Photoelectric Factor
PR   .                :Poisson Shear/Compressional Ratio
RHOB .G/C3            :Bulk Density
RT   .OHMM            :True Resistivity
SPHI .V/V             :Sonic Porosity
TNPH .V/V             :Thermal Neutron Porosity
VPVS .                :Compressional to Shear Velosity Ratio
#--------------------------------------------------
# 
#    DEPTH       AT10        AT20        AT30        AT60        AT90        CALI        DRHO         DT2        DTCO        DTSM         GR          PEF         PR         RHOB         RT         SPHI        TNPH        VPVS     
#                                                                                                                                                                                                                                     
~A  
# ...
 4545.3300      85.549      95.580     100.461     116.696     133.931       8.994       0.128      95.714      59.580      95.714      31.008       3.901       0.184       2.486     128.729       0.038       0.027       1.606
 4545.1776     112.257     120.264     134.371     160.478     203.262       8.888       0.103      94.462      58.874      94.462      28.319       3.764       0.182       2.499     220.010       0.031       0.025       1.604
 4545.0252     135.917     140.750     158.659     169.868     268.247       8.513       0.069      90.463      58.772      90.463      32.598       3.910       0.135       2.495     362.191       0.029       0.027       1.539
 4544.8728     149.615     150.392     184.817     200.615     329.679       8.474       0.044      88.546      60.228      88.546      31.847       3.490       0.070       2.512     509.724       0.044       0.027       1.470
 4544.7204     177.575     178.802     240.506     225.069     410.941       8.459       0.026      84.962      59.841      84.962      29.260       3.420       0.008       2.506     597.432       0.040       0.028       1.420
 4544.5680     240.080     243.849     336.688     305.918     513.832       8.464       0.011      85.356      57.161      85.356      25.428       3.212       0.093       2.498     588.640       0.013       0.027       1.493
 4544.4156     347.336     358.375     370.795     382.976     683.809       8.465       0.009      89.633      59.480      89.633      22.987       3.069       0.107       2.501     476.765       0.037       0.025       1.507
 4544.2632     594.772     637.016     334.864     541.600     803.486       8.435       0.006      89.267      60.566      89.267      21.444       2.823       0.074       2.497     370.650       0.047       0.024       1.474
 4544.1108     555.721     583.095     211.111     501.913     596.403       8.463       0.003      89.115      59.264      89.115      22.323       2.517       0.104       2.480     286.824       0.034       0.025       1.504
 4543.9584     279.198     280.623     131.367     300.517     309.855       8.588       0.010      92.194      63.621      92.194      36.608       2.687       0.045       2.452     210.263       0.075       0.047       1.449
 4543.8060     113.419     111.083     120.698     155.400     152.991       8.559       0.009     107.515      56.562     107.515      50.070       3.048       0.309       2.445     148.659       0.006       0.090       1.901
 4543.6536      43.321      42.103      42.976      89.780      88.280       8.534       0.007     114.080      70.306     114.080      54.327       3.597       0.194       2.458     120.621       0.127       0.106       1.623
 4543.5012      18.289      16.782      24.450      63.094      61.525       8.503       0.010     117.511      69.700     117.511      42.026       3.754       0.229       2.501     115.379       0.123       0.081       1.686
 4543.3488      15.254      13.458      21.045      36.836      36.100       8.457       0.004     118.226      70.696     118.226      29.593       3.487       0.222       2.491     126.069       0.130       0.071       1.672
 4543.1964      23.422      20.028      25.489      27.924      27.644       8.461      -0.011     119.038      70.138     119.038      23.423       3.254       0.234       2.436     148.263       0.126       0.065       1.697
 4543.0440      63.470      49.413      48.483      34.469      34.466       8.419      -0.014     118.739      66.230     118.739      21.187       2.844       0.274       2.387     183.200       0.097       0.059       1.793
 4542.8916     152.680     121.638     109.856      53.007      51.693       8.391      -0.008     112.074      63.410     112.074      18.487       2.428       0.265       2.399     228.014       0.073       0.056       1.767
 4542.7392     296.009     291.546     194.247      84.019      75.532       8.385      -0.004     106.907      62.183     106.907      14.644       2.326       0.244       2.432     263.097       0.062       0.053       1.719
 4542.5868     589.053     574.734     204.691     148.204     160.131       8.392       0.001     109.415      64.261     109.415      12.577       2.290       0.237       2.451     289.895       0.080       0.049       1.703
 4542.4344     665.564     662.394     356.541     175.171     167.471       8.450      -0.000     110.703      62.901     110.703      13.146       2.635       0.262       2.435     340.847       0.069       0.043       1.760
 4542.2820     658.969     682.077     468.633     292.971     279.241       8.589      -0.005     110.018      64.619     110.018      13.138       2.865       0.237       2.412     410.475       0.083       0.036       1.703
 4542.1296    1061.063    1153.993     512.773     512.489     499.298       8.880      -0.004     113.068      65.178     113.068      13.919       3.096       0.251       2.418     400.122       0.088       0.024       1.735
 4541.9772     484.000     488.356     632.268    1125.494    1136.596       9.037       0.001     114.452      70.511     114.452      13.919       2.939       0.194       2.435     290.680       0.129       0.021       1.623
 4541.8248     202.635     203.805     116.029     126.941     126.920       9.168       0.000     113.123      68.125     113.123      16.245       2.626       0.215       2.453     191.654       0.111       0.021       1.661
 4541.6724      65.303      72.781      69.345      75.130      75.239       9.273       0.006     112.564      66.449     112.564      19.563       2.450       0.233       2.462     132.878       0.098       0.028       1.694
 4541.5200      28.052      30.041      31.925      40.206      40.538       9.315       0.009     111.771      65.606     111.771      23.539       2.487       0.237       2.472     102.742       0.092       0.041       1.704
 4541.3676      23.950      24.761      26.792      28.073      28.336       9.373       0.004     111.141      65.687     111.141      23.153       2.818       0.232       2.440      90.767       0.092       0.051       1.692
 4541.2152      36.600      35.539      38.057      38.651      38.737       9.373      -0.004     114.720      67.308     114.720      18.152       3.014       0.238       2.420      91.688       0.105       0.047       1.704
 4541.0628      91.015      82.586      76.544      71.384      70.900       9.350      -0.012     106.247      67.181     106.247      14.386       2.738       0.167       2.386     105.292       0.104       0.034       1.581
 4540.9104     230.030     229.190     124.115     107.090     107.695       9.293      -0.017     105.641      66.574     105.641      13.229       2.405       0.171       2.385     136.375       0.099       0.024       1.587
 4540.7580     563.683     555.647     592.308     424.989     438.370       9.210      -0.020     105.234      67.438     105.234      13.623       2.320       0.152       2.369     195.264       0.106       0.015       1.560
 4540.6056    1772.796    1762.260    1456.768    1950.000    1540.458       9.090      -0.019     103.150      66.805     103.150      13.366       2.353       0.139       2.358     298.173       0.101       0.009       1.544
 4540.4532    1950.000    1950.000    1478.629    1784.592    1638.280       9.002      -0.021     102.846      67.197     102.846      12.591       2.376       0.128       2.346     463.041       0.104       0.010       1.531
 4540.3008    1950.000    1950.000    1683.487    1950.000    1879.628       8.910      -0.018     102.535      66.682     102.535      13.356       2.362       0.134       2.343     710.429       0.100       0.014       1.538
 4540.1484    1950.000    1950.000    1898.449    1924.745    1922.090       8.852      -0.015     103.012      68.525     103.012      14.092       2.312       0.103       2.347     989.433       0.114       0.017       1.503
 4539.9960    1220.683    1196.152    1460.579    1775.919    1754.562       8.793      -0.013     102.118      69.134     102.118      14.087       2.299       0.077       2.346    1188.799       0.119       0.021       1.477
